Stn_Name,Lat,Long,Prov,Tm,DwTm,D,Tx,DwTx,Tn,DwTn,S,DwS,S%N,P,DwP,P%N,S_G,Pd,BS,DwBS,BS%,HDD,CDD,Clim_ID,time
ABEE AGDM,54.283,-112.967,AB,-13.5,2,NA,4.8,2,-33.5,1,,,NA,27.5,3,NA,,13,,,NA,913.1,0.0,3010010,1451631600.0
ALBERT HALL AGCM,53.113,-111.181,AB,-11.4,0,NA,6.4,0,-37.9,0,,,NA,18.0,0,NA,,4,,,NA,910.7,0.0,3010060,1451631600.0
ALLIANCE AGCM,52.315,-111.779,AB,-9.5,4,NA,6.1,2,-28.9,3,,,NA,5.2,5,NA,,1,,,NA,743.8,0.0,3010162,1451631600.0
ANDREW,54.017,-112.233,AB,-11.3,2,2.1,7.0,2,-33.0,2,20.0,2,NA,20.0,2,NA,,5,,,NA,851.0,0.0,3010234,1451631600.0
ANDREW AGDM,53.917,-112.279,AB,-12.1,3,NA,5.7,2,-35.4,1,,,NA,16.6,4,NA,,4,,,NA,843.0,0.0,3010237,1451631600.0
BELLSHILL AGCM,52.582,-111.465,AB,-11.4,6,NA,6.8,3,-31.1,5,,,NA,2.7,7,NA,,0,,,NA,734.0,0.0,3010650,1451631600.0
BODO AGDM,52.124,-110.101,AB,-9.7,1,NA,6.4,1,-32.2,0,,,NA,10.1,1,NA,,3,,,NA,832.1,0.0,3010730,1451631600.0
BRETON,53.167,-114.483,AB,-6.1,24,NA,18.0,17,-26.0,17,0.0,17,NA,0.0,17,NA,4.0,0,,,NA,168.5,0.0,3010815,1451631600.0
BRETON PLOTS,53.089,-114.441,AB,-7.6,0,NA,13.5,0,-27.3,0,,,NA,7.2,0,NA,,2,,,NA,794.5,0.0,3010816,1451631600.0
BUSBY AGCM,53.931,-113.922,AB,-10.9,0,NA,7.5,0,-27.9,0,,,NA,21.1,0,NA,,9,,,NA,896.0,0.0,3010979,1451631600.0
CADOGAN AGCM,52.334,-110.510,AB,-9.2,2,NA,7.6,2,-33.1,0,,,NA,12.5,2,NA,,3,,,NA,789.4,0.0,3010992,1451631600.0
CALMAR,53.290,-113.863,AB,,,,0.0,29,-14.5,29,0.0,29,NA,0.0,29,NA,,0,,,NA,,,3011120,1451631600.0
CAMROSE,53.050,-112.817,AB,-11.0,0,0.6,7.9,0,-28.5,0,,,NA,10.9,0,48.0,5.0,3,,,NA,898.5,0.0,3011240,1451631600.0
CAMROSE 2,52.950,-112.800,AB,-3.6,28,NA,6.0,23,-29.5,24,0.0,10,NA,0.0,10,NA,,0,,,NA,64.8,0.0,3011241,1451631600.0
CARNWOOD,53.234,-114.654,AB,-8.7,0,NA,14.0,0,-30.0,0,9.0,0,NA,9.0,0,NA,18.0,3,,,NA,828.5,0.0,3011350,1451631600.0
CONSORT AGDM,51.937,-110.713,AB,-11.2,4,NA,3.4,3,-30.8,1,,,NA,9.5,4,NA,,3,,,NA,789.7,0.0,3011815,1451631600.0
CORONATION CLIMATE,52.074,-111.449,AB,-11.7,1,NA,5.4,1,-33.0,0,,,NA,8.2,1,NA,8.0,2,,,NA,890.6,0.0,3011887,1451631600.0
CRESTOMERE AGCM,52.733,-113.903,AB,-9.4,5,NA,10.1,5,-24.7,0,,,NA,4.6,6,NA,,2,,,NA,711.4,0.0,3011892,1451631600.0
DAKOTA WEST,52.750,-113.950,AB,-9.6,7,0.3,7.0,7,-23.0,7,11.2,7,NA,13.2,7,NA,,5,,,NA,662.1,0.0,3011953,1451631600.0
DELBURNE AGCM,52.183,-113.176,AB,-8.2,0,NA,8.6,0,-25.7,0,,,NA,13.1,1,NA,,3,,,NA,811.1,0.0,3012050,1451631600.0
DEWBERRY AGCM,53.659,-110.588,AB,-12.0,2,NA,4.9,2,-38.7,0,,,NA,26.8,2,NA,,7,,,NA,869.9,0.0,3012073,1451631600.0
DONALDA SOUTH,52.517,-112.351,AB,-10.3,0,NA,7.0,0,-30.0,0,11.0,0,NA,14.1,0,NA,4.0,9,,,NA,878.1,0.0,3012095,1451631600.0
EDGERTON AGCM,52.778,-110.433,AB,-10.5,4,NA,6.6,3,-36.1,1,,,NA,13.0,4,NA,,5,,,NA,770.3,0.0,3012192,1451631600.0
EDMONTON INTERNATIONAL CS,53.307,-113.606,AB,-11.1,0,NA,7.6,0,-28.0,0,,,NA,,,NA,8.0,,,,NA,901.1,0.0,3012206,1451631600.0
EDMONTON BLATCHFORD,53.573,-113.517,AB,-8.5,1,NA,10.2,1,-25.5,0,,,NA,8.7,1,NA,8.0,2,,,NA,796.3,0.0,3012209,1451631600.0
EDMONTON NAMAO AWOS A,53.667,-113.467,AB,-10.1,0,NA,9.6,0,-30.0,0,,,NA,12.5,0,NA,,3,,,NA,869.8,0.0,3012212,1451631600.0
EDMONTON INTL A,53.310,-113.579,AB,-11.2,0,NA,7.8,0,-27.8,0,7.5,0,NA,6.8,1,NA,11.0,1,,,NA,903.8,0.0,3012216,1451631600.0
EDMONTON VILLENEUVE A,53.668,-113.856,AB,-10.5,0,NA,9.8,0,-26.5,0,,,NA,3.8,0,NA,,1,,,NA,884.2,0.0,3012229,1451631600.0
EDMONTON STONY PLAIN,53.548,-114.108,AB,-8.1,0,1.9,10.7,0,-24.9,0,10.8,0,46.0,7.0,0,33.0,10.0,3,,,NA,807.7,0.0,301222F,1451631600.0
ELK ISLAND NAT PARK,53.683,-112.868,AB,-9.7,0,2.3,12.8,0,-29.3,0,,,NA,14.8,0,81.0,12.0,4,,,NA,857.9,0.0,3012275,1451631600.0
FABYAN,52.967,-111.000,AB,-11.9,0,2.2,5.0,0,-34.0,0,12.4,0,66.0,16.4,0,83.0,0.0,6,,,NA,927.4,0.0,3012515,1451631600.0
FERINTOSH AGCM,52.744,-112.858,AB,-10.0,1,NA,7.3,1,-26.7,1,,,NA,4.8,1,NA,,1,,,NA,840.6,0.0,3012590,1451631600.0
FORESTBURG PLANT SITE,52.467,-112.120,AB,-9.7,2,0.5,7.0,2,-30.0,2,6.4,2,NA,7.4,2,NA,0.0,5,,,NA,804.3,0.0,3012652,1451631600.0
FORESTBURG AGCM,52.548,-112.123,AB,-10.2,0,NA,7.1,0,-29.9,0,,,NA,4.9,1,NA,,0,,,NA,873.9,0.0,3012653,1451631600.0
FORT SASKATCHEWAN,53.717,-113.183,AB,-10.2,20,1.7,9.0,20,-37.0,20,4.5,20,NA,4.5,20,NA,,3,,,NA,310.4,0.0,3012710,1451631600.0
GILT EDGE NORTH AGCM,53.071,-110.621,AB,-11.2,3,NA,6.1,3,-35.3,2,,,NA,22.1,4,NA,,6,,,NA,817.7,0.0,3012790,1451631600.0
GLENEVIS AGCM,53.833,-114.539,AB,-9.5,3,NA,11.2,2,-24.1,1,,,NA,,,NA,,,,,NA,771.1,0.0,3012818,1451631600.0
HALKIRK AGCM,52.116,-112.164,AB,-10.5,0,NA,5.7,0,-28.7,0,,,NA,9.0,9,NA,,2,,,NA,883.7,0.0,3012999,1451631600.0
HEMARUKA AGCM,51.780,-111.212,AB,-11.2,1,NA,7.2,1,-32.2,0,,,NA,9.0,1,NA,,1,,,NA,875.0,0.0,3013140,1451631600.0
HOLDEN AGDM,53.185,-112.246,AB,-11.3,1,NA,7.5,1,-34.0,1,,,NA,26.3,3,NA,,11,,,NA,878.4,0.0,3013340,1451631600.0
HUGHENDEN AGCM,52.578,-110.784,AB,-9.7,7,NA,6.2,6,-32.3,1,,,NA,9.2,9,NA,,2,,,NA,664.9,0.0,3013362,1451631600.0
KILLAM AGDM,52.848,-111.872,AB,-13.0,8,NA,-0.3,7,-32.0,4,,,NA,32.8,9,NA,,13,,,NA,713.6,0.0,3013640,1451631600.0
KESSLER AGCM,52.290,-111.113,AB,-10.5,4,NA,7.9,3,-32.9,1,,,NA,7.3,5,NA,,3,,,NA,769.6,0.0,3013644,1451631600.0
KITSCOTY AGCM,53.353,-110.416,AB,-11.5,0,NA,4.2,0,-35.8,0,,,NA,28.1,1,NA,,10,,,NA,915.0,0.0,3013660,1451631600.0
LEGAL AGCM,54.003,-113.474,AB,-10.6,4,NA,6.6,2,-31.3,2,,,NA,8.8,5,NA,,3,,,NA,770.9,0.0,3013790,1451631600.0
LINDBERGH AGDM,53.943,-110.579,AB,-12.1,2,NA,5.4,2,-38.0,1,,,NA,30.9,3,NA,,8,,,NA,871.6,0.0,3013921,1451631600.0
LLOYDMINSTER,53.309,-110.073,AB,-12.5,3,NA,4.4,3,-32.8,3,,,NA,0.2,5,NA,,0,,,NA,853.2,0.0,3013959,1451631600.0
LLOYDMINSTER A,53.309,-110.073,AB,-11.5,0,2.7,4.8,0,-32.8,0,28.0,0,164.0,36.4,0,231.0,17.0,10,,,NA,914.9,0.0,3013961,1451631600.0
HOLDEN SOUTH,53.083,-112.267,AB,,,NA,,,,,8.4,1,NA,11.4,1,NA,13.0,5,,,NA,,,3013C44,1451631600.0
MANNVILLE AGCM,53.456,-111.255,AB,-11.0,0,NA,4.9,0,-35.0,0,,,NA,24.2,0,NA,,7,,,NA,900.4,0.0,3014195,1451631600.0
MONITOR,52.017,-110.550,AB,,,NA,,,,,7.4,0,41.0,10.0,0,52.0,0.0,4,,,NA,,,3014600,1451631600.0
MUNDARE AGDM,53.567,-112.300,AB,-10.8,5,NA,6.0,3,-32.9,2,,,NA,5.9,9,NA,7.0,1,,,NA,749.7,0.0,3014665,1451631600.0
MYRNAM AGCM,53.720,-111.114,AB,-11.7,7,NA,5.1,5,-39.4,4,,,NA,17.5,10,NA,,4,,,NA,712.4,0.0,3014690,1451631600.0
NEW SEREPTA AGCM,53.262,-113.165,AB,-10.0,0,NA,7.6,0,-27.5,0,,,NA,8.2,0,NA,,1,,,NA,869.5,0.0,3014795,1451631600.0
OLIVER AGDM,53.650,-113.350,AB,-10.9,3,NA,9.5,2,-27.4,1,,,NA,,,NA,,,,,NA,808.6,0.0,3014921,1451631600.0
RADWAY AGCM,53.995,-112.879,AB,-11.5,0,NA,5.6,0,-33.9,0,,,NA,,,NA,,,,,NA,914.6,0.0,3015346,1451631600.0
RANFURLY AUTO,53.425,-111.726,AB,-11.0,0,NA,5.9,0,-31.4,0,,,NA,17.8,0,NA,14.0,4,,,NA,898.8,0.0,3015401,1451631600.0
RIBSTONE SOUTH AGCM,52.587,-110.343,AB,-8.5,12,NA,5.7,9,-33.5,10,,,NA,5.4,12,NA,,1,,,NA,503.4,0.0,3015480,1451631600.0
RIVERCOURSE AGCM,53.019,-110.102,AB,-11.3,2,NA,4.2,1,-34.9,2,,,NA,18.5,3,NA,,5,,,NA,850.6,0.0,3015501,1451631600.0
ROCKY MTN HOUSE (AUT),52.421,-114.912,AB,-11.1,4,NA,12.5,4,-32.7,4,,,NA,18.6,4,NA,25.0,6,,,NA,785.1,0.0,3015523,1451631600.0
ROSALIND AGCM,52.780,-112.428,AB,-10.6,0,NA,6.7,0,-29.7,0,,,NA,6.1,0,NA,,1,,,NA,887.9,0.0,3015600,1451631600.0
ST. LINA AGCM,54.282,-111.453,AB,-11.5,5,NA,5.7,4,-34.9,2,,,NA,19.8,6,NA,,6,,,NA,766.7,0.0,3015673,1451631600.0
ST. PAUL AGCM,54.011,-111.272,AB,,,NA,-6.0,30,-14.9,29,,,NA,,,NA,,,,,NA,,,3015676,1451631600.0
SEDALIA AGCM,51.590,-110.755,AB,-10.8,6,NA,6.0,4,-30.7,4,,,NA,7.0,6,NA,,1,,,NA,719.3,0.0,3015797,1451631600.0
SEDGEWICK TOWN,52.783,-111.700,AB,-9.9,0,3.6,8.0,0,-35.0,0,8.0,0,47.0,21.0,0,121.0,0.0,4,,,NA,863.5,0.0,3015808,1451631600.0
SHONTS AGCM,53.333,-112.539,AB,-10.3,4,NA,7.3,3,-34.3,2,,,NA,14.2,4,NA,,3,,,NA,763.6,0.0,3015900,1451631600.0
SMOKY LAKE AGDM,54.278,-112.499,AB,-13.3,14,NA,0.3,14,-29.4,13,,,NA,7.9,14,NA,,3,,,NA,531.6,0.0,3016022,1451631600.0
SPONDIN AGCM,51.816,-111.683,AB,-11.0,4,NA,6.3,3,-31.6,2,,,NA,11.2,5,NA,,1,,,NA,783.7,0.0,3016070,1451631600.0
STETTLER AGDM,52.347,-112.596,AB,-9.2,3,NA,5.9,3,-28.1,0,,,NA,6.8,3,NA,,1,,,NA,761.2,0.0,3016124,1451631600.0
THORSBY AGCM,53.217,-113.895,AB,-9.1,7,NA,11.0,4,-27.3,3,,,NA,6.6,7,NA,,2,,,NA,650.8,0.0,3016441,1451631600.0
TOMAHAWK AGDM,53.439,-114.718,AB,-8.1,11,NA,5.7,11,-26.4,7,,,NA,6.8,11,NA,,2,,,NA,521.3,0.0,3016505,1451631600.0
TULLIBY LAKE AGCM,53.664,-110.081,AB,-11.5,3,NA,3.7,2,-27.6,1,,,NA,28.3,3,NA,,6,,,NA,827.1,0.0,3016593,1451631600.0
UNCAS,53.500,-113.033,AB,,,NA,,,,,10.8,0,NA,18.4,0,NA,13.0,5,,,NA,,,3016650,1451631600.0
TWO HILLS AGDM,53.625,-111.678,AB,-10.5,6,NA,4.7,5,-30.1,2,,,NA,18.3,7,NA,,4,,,NA,712.7,0.0,3016655,1451631600.0
VERMILION AGDM,53.344,-110.882,AB,-10.7,4,NA,4.8,2,-37.5,2,,,NA,15.3,5,NA,,3,,,NA,775.6,0.0,3016802,1451631600.0
VIKING AGCM,53.182,-111.732,AB,-7.4,18,NA,6.4,11,-26.2,17,,,NA,10.8,19,NA,,2,,,NA,330.7,0.0,3016841,1451631600.0
VIKING NORTH 3,53.283,-111.767,AB,-9.4,2,NA,5.0,1,-34.0,1,9.5,1,NA,14.5,1,NA,11.0,7,,,NA,795.6,0.0,3016845,1451631600.0
VILNA AGCM,54.130,-111.921,AB,-10.9,4,NA,4.8,2,-35.0,2,,,NA,17.1,4,NA,,3,,,NA,780.8,0.0,3016852,1451631600.0
VIOLET GROVE CS,53.144,-115.126,AB,-7.9,1,NA,13.8,1,-25.7,0,,,NA,,,NA,13.0,,,,NA,777.9,0.0,3016860,1451631600.0
VEGREVILLE,53.505,-112.098,AB,-11.3,0,2.0,5.8,0,-35.4,0,,,NA,27.7,0,183.0,13.0,8,,,NA,907.3,0.0,3016GF0,1451631600.0
WETASKIWIN AGCM,52.980,-113.444,AB,-10.6,8,NA,8.6,7,-27.3,1,,,NA,5.0,8,NA,,1,,,NA,656.8,0.0,3017282,1451631600.0
EDMONTON STONY PLAIN CS,53.547,-114.108,AB,-8.4,0,NA,10.9,0,-24.5,0,,,NA,6.3,0,NA,15.0,2,,,NA,817.1,0.0,301A001,1451631600.0
ESTHER 1,51.670,-110.206,AB,-10.2,0,NA,6.6,0,-35.3,0,,,NA,5.8,0,NA,,2,,,NA,875.0,0.0,301B460,1451631600.0
UNIVERSITY OF ALBERTA METABOLIC CENTRE,53.517,-113.533,AB,-9.3,0,2.4,9.5,0,-25.0,0,6.0,0,41.0,6.0,0,41.0,0.0,6,,,NA,845.0,0.0,301FFNJ,1451631600.0
WAINWRIGHT CFB AIRFIELD 21,52.829,-111.096,AB,-11.2,1,NA,6.4,1,-34.2,0,,,NA,13.6,1,NA,8.0,3,,,NA,876.1,0.0,301S001,1451631600.0
ACADIA VALLEY,51.066,-110.317,AB,-9.7,2,NA,8.1,2,-30.2,0,,,NA,2.1,5,NA,,0,,,NA,802.1,0.0,3020035,1451631600.0
ATLEE AGCM,50.810,-111.006,AB,-9.2,2,NA,8.3,2,-27.9,0,,,NA,9.2,3,NA,,2,,,NA,789.9,0.0,3020405,1451631600.0
BEISEKER AGCM,51.379,-113.357,AB,-9.2,0,NA,8.8,0,-28.7,0,,,NA,11.7,0,NA,,3,,,NA,843.4,0.0,3020610,1451631600.0
BIG VALLEY AGCM,51.998,-112.803,AB,-8.9,5,NA,9.7,3,-25.8,3,,,NA,36.5,5,NA,,14,,,NA,698.5,0.0,3020679,1451631600.0
CRAIGMYLE AGCM,51.775,-112.252,AB,-10.1,3,NA,5.1,2,-26.3,2,,,NA,17.1,4,NA,,3,,,NA,785.6,0.0,3021912,1451631600.0
CRAIGMYLE,51.767,-112.283,AB,-10.0,1,1.3,5.0,1,-25.0,1,36.9,1,NA,36.9,1,NA,0.0,7,,,NA,840.1,0.0,3021940,1451631600.0
DRUMHELLER EAST,51.445,-112.677,AB,-10.5,0,NA,9.6,0,-28.3,0,,,NA,,,NA,,,,,NA,882.9,0.0,30221LG,1451631600.0
HESPERO AGCM,52.310,-114.486,AB,-10.2,3,NA,11.1,3,-25.9,0,,,NA,14.0,4,NA,,3,,,NA,789.8,0.0,3023200,1451631600.0
HUSSAR AGDM,51.183,-112.500,AB,-7.6,3,NA,5.8,3,-23.1,1,,,NA,12.5,3,NA,,3,,,NA,716.7,0.0,3023402,1451631600.0
LACOMBE CDA 2,52.449,-113.756,AB,-10.1,0,NA,8.3,0,-25.9,0,,,NA,13.9,0,NA,21.0,3,,,NA,871.0,0.0,3023722,1451631600.0
LEEDALE AGDM,52.553,-114.473,AB,-11.8,0,NA,10.0,0,-29.4,0,,,NA,4.1,2,NA,2.0,2,,,NA,924.6,0.0,3023740,1451631600.0
LINDEN AGCM,51.619,-113.656,AB,-9.9,0,NA,8.0,0,-30.4,0,,,NA,9.3,11,NA,,3,,,NA,864.3,0.0,3023850,1451631600.0
MORRIN AGDM,51.660,-112.675,AB,-10.5,1,NA,7.6,1,-26.8,1,,,NA,14.2,1,NA,,3,,,NA,856.3,0.0,3024668,1451631600.0
OLDS AGDM,51.759,-114.085,AB,-7.3,0,NA,10.7,0,-28.1,0,,,NA,18.5,0,NA,,3,,,NA,783.9,0.0,3024925,1451631600.0
OYEN AGDM,51.383,-110.350,AB,-11.0,10,NA,4.4,8,-32.8,4,,,NA,2.1,11,NA,,0,,,NA,609.8,0.0,3024965,1451631600.0
POLLOCKVILLE AGDM,51.125,-111.705,AB,-10.4,11,NA,7.3,11,-27.0,4,,,NA,8.9,11,NA,,2,,,NA,567.6,0.0,3025243,1451631600.0
PRENTISS,52.433,-113.600,AB,-3.3,19,NA,9.1,9,-17.1,19,,,NA,6.8,19,NA,,1,,,NA,255.5,0.0,3025297,1451631600.0
RED DEER REGIONAL A,52.182,-113.894,AB,-10.8,0,NA,9.9,0,-29.8,0,23.0,0,NA,6.6,1,NA,19.0,2,,,NA,894.2,0.0,3025481,1451631600.0
SCHULER AGDM,50.307,-110.091,AB,-7.5,3,NA,9.6,1,-27.7,2,,,NA,12.8,4,NA,,3,,,NA,712.7,0.0,3025768,1451631600.0
SIBBALD WESTGARD,51.425,-110.146,AB,-10.8,0,NA,7.0,0,-35.5,0,10.0,0,NA,10.0,0,NA,10.0,5,,,NA,894.1,0.0,3025928,1451631600.0
THREE HILLS,51.768,-113.206,AB,-9.8,2,NA,8.0,2,-30.4,0,,,NA,14.9,4,NA,,2,,,NA,805.8,0.0,3026479,1451631600.0
SUNDRE A,51.778,-114.683,AB,-8.8,0,NA,11.9,0,-31.6,0,,,NA,13.2,0,NA,7.0,5,,,NA,829.5,0.0,3026KNQ,1451631600.0
WIMBORNE AGCM,51.936,-113.591,AB,-7.8,5,NA,8.4,5,-27.6,1,,,NA,10.3,7,NA,,1,,,NA,671.3,0.0,3027582,1451631600.0
AZURE,50.512,-114.013,AB,-3.7,4,NA,14.1,2,-30.2,2,,,NA,20.3,7,NA,,11,,,NA,586.8,0.0,3030450,1451631600.0
BARNWELL AGDM,49.800,-112.300,AB,-5.2,9,NA,13.2,5,-27.6,5,,,NA,5.1,11,NA,,1,,,NA,510.1,0.0,3030525,1451631600.0
BARONS AGCM,50.026,-113.224,AB,-6.3,2,NA,12.6,2,-29.0,0,,,NA,4.3,3,NA,,3,,,NA,704.2,0.0,3030529,1451631600.0
BASSANO AGCM,50.893,-112.465,AB,-8.7,1,NA,12.6,1,-26.4,0,,,NA,9.5,1,NA,,3,,,NA,800.3,0.0,3030540,1451631600.0
BLACK DIAMOND,50.707,-114.152,AB,-5.2,4,NA,13.5,4,-28.9,0,,,NA,0.4,25,NA,,0,,,NA,625.2,0.0,3030680,1451631600.0
BLOOD TRIBE AGDM,49.567,-113.050,AB,-4.5,6,NA,13.8,5,-28.6,1,,,NA,2.9,15,NA,,1,,,NA,561.5,0.0,3030720,1451631600.0
BOW ISLAND,49.734,-111.450,AB,-6.3,0,NA,11.5,0,-27.7,0,,,NA,11.1,0,NA,,3,,,NA,754.6,0.0,3030768,1451631600.0
BOW ISLAND IRRIGATION AGDM,49.867,-111.383,AB,-6.3,0,NA,11.4,0,-26.3,0,,,NA,11.1,1,NA,,5,,,NA,754.6,0.0,3030772,1451631600.0
BROCKET AGDM,49.617,-113.817,AB,-3.6,0,NA,8.4,0,-29.6,0,,,NA,12.1,10,NA,,3,,,NA,669.3,0.0,3030830,1451631600.0
BROOKS,50.555,-111.849,AB,-8.2,0,NA,13.4,0,-26.3,0,,,NA,8.4,0,NA,0.0,3,,,NA,811.1,0.0,3030QLP,1451631600.0
CALGARY INTL A,51.123,-114.013,AB,-5.4,0,NA,12.8,0,-25.5,0,15.3,0,NA,12.1,0,NA,1.0,4,,,NA,724.0,0.0,3031092,1451631600.0
CALGARY INT'L CS,51.109,-114.000,AB,-6.0,0,NA,10.7,0,-26.0,0,,,NA,7.0,0,NA,0.0,2,,,NA,744.4,0.0,3031094,1451631600.0
CARDSTON,49.201,-113.286,AB,-3.5,0,NA,13.2,0,-25.5,0,,,NA,25.1,0,NA,,4,,,NA,666.3,0.0,3031322,1451631600.0
CARWAY,49.001,-113.376,AB,-4.0,1,NA,11.6,0,-22.9,1,,,NA,22.1,2,NA,2.0,4,,,NA,658.7,0.0,3031402,1451631600.0
CHAMPION AGDM,50.282,-113.350,AB,-6.5,0,NA,12.9,0,-26.5,0,,,NA,4.3,0,NA,,1,,,NA,759.7,0.0,3031480,1451631600.0
CLARESHOLM,50.004,-113.639,AB,-5.3,0,NA,14.1,0,-27.6,0,,,NA,9.1,0,NA,1.0,3,,,NA,721.0,0.0,3031640,1451631600.0
COP UPPER,51.076,-114.222,AB,-4.0,0,NA,10.9,0,-19.8,0,,,NA,7.9,0,NA,,2,,,NA,682.3,0.0,3031875,1451631600.0
ENCHANT AGDM,50.183,-112.433,AB,-5.9,4,NA,12.0,4,-28.5,0,,,NA,7.6,5,NA,,4,,,NA,645.7,0.0,3032422,1451631600.0
ETZIKOM AGCM,49.553,-111.054,AB,-7.2,3,NA,10.1,2,-25.9,2,,,NA,8.6,4,NA,,2,,,NA,705.0,0.0,3032450,1451631600.0
FINCASTLE AGDM,49.800,-112.033,AB,-5.2,0,NA,13.2,0,-28.2,0,,,NA,11.7,0,NA,,4,,,NA,720.7,0.0,3032550,1451631600.0
FOREMOST AGDM,49.483,-111.486,AB,-6.3,5,NA,11.7,4,-26.9,2,,,NA,4.5,10,NA,,1,,,NA,632.4,0.0,3032642,1451631600.0
FORT MACLEOD AGCM,49.786,-113.379,AB,-5.0,0,NA,12.2,0,-27.1,0,,,NA,8.1,6,NA,,3,,,NA,711.8,0.0,3032683,1451631600.0
GLEICHEN AGCM,50.934,-112.941,AB,-7.4,0,NA,10.5,0,-25.1,0,,,NA,5.0,18,NA,,1,,,NA,787.3,0.0,3032801,1451631600.0
GRASSY LAKE,49.874,-111.733,AB,-5.7,1,NA,13.5,1,-27.3,0,,,NA,9.6,2,NA,,2,,,NA,712.0,0.0,3032927,1451631600.0
IRON SPRINGS AGDM,49.900,-112.733,AB,-4.9,3,NA,11.7,3,-21.6,1,,,NA,8.6,4,NA,,3,,,NA,641.6,0.0,3033498,1451631600.0
IRVINE AGCM,49.989,-110.261,AB,-5.8,1,NA,13.0,0,-26.2,1,,,NA,6.5,3,NA,,3,,,NA,712.6,0.0,3033550,1451631600.0
LETHBRIDGE,49.630,-112.799,AB,-6.2,3,NA,13.8,3,-29.1,3,,,NA,4.3,3,NA,,2,,,NA,678.1,0.0,3033875,1451631600.0
LETHBRIDGE CDA,49.695,-112.768,AB,-4.5,0,NA,12.9,0,-25.8,0,,,NA,8.0,0,NA,,2,,,NA,696.2,0.0,3033890,1451631600.0
LETHBRIDGE CDA 2,49.700,-112.783,AB,,,NA,,,,,12.0,0,NA,9.2,0,NA,2.0,4,,,NA,,,3033892,1451631600.0
LETHBRIDGE DEMO FARM AGDM,49.683,-112.750,AB,-5.0,1,NA,12.8,1,-27.0,0,,,NA,10.3,1,NA,,3,,,NA,690.9,0.0,3033897,1451631600.0
MEDICINE HAT,50.019,-110.721,AB,-6.4,0,NA,12.0,0,-26.1,0,,,NA,0.8,22,NA,,0,,,NA,757.5,0.0,3034479,1451631600.0
MEDICINE HAT RCS,50.025,-110.717,AB,-6.5,0,NA,11.6,0,-25.9,0,,,NA,7.6,0,NA,,3,,,NA,758.0,0.0,3034485,1451631600.0
MOSSLEIGH AGCM,50.673,-113.349,AB,-5.9,9,NA,13.2,5,-27.4,5,,,NA,5.1,9,NA,,3,,,NA,525.8,0.0,3034577,1451631600.0
NIER AGDM,51.369,-114.099,AB,-5.3,2,NA,11.4,1,-23.0,1,,,NA,4.7,3,NA,,1,,,NA,674.5,0.0,3034795,1451631600.0
PINCHER CREEK,49.521,-113.997,AB,-4.3,3,NA,7.9,3,-24.1,3,,,NA,10.0,4,NA,,3,,,NA,624.1,0.0,3035198,1451631600.0
PINCHER CREEK CLIMATE,49.522,-114.005,AB,-4.0,0,NA,7.9,0,-24.8,0,,,NA,20.5,0,NA,1.0,6,,,NA,682.8,0.0,3035208,1451631600.0
QUEENSTOWN,50.606,-112.983,AB,-6.1,0,1.4,13.5,0,-26.0,0,14.0,0,98.0,14.0,0,97.0,0.0,7,,,NA,747.8,0.0,3035340,1451631600.0
QUEENSTOWN,50.598,-112.803,AB,-6.4,2,NA,11.0,2,-23.5,0,,,NA,17.3,2,NA,,7,,,NA,708.5,0.0,3035342,1451631600.0
RAYMOND AGDM,49.483,-112.683,AB,-3.8,2,NA,13.7,2,-30.7,0,,,NA,7.9,8,NA,,2,,,NA,631.0,0.0,3035422,1451631600.0
ROLLING HILLS AGCM,50.265,-111.701,AB,-6.5,3,NA,13.1,3,-28.6,0,,,NA,4.1,3,NA,,2,,,NA,684.9,0.0,3035530,1451631600.0
ROSEMARY AGDM,50.833,-112.050,AB,-10.3,5,NA,7.9,5,-27.1,1,,,NA,13.8,9,NA,,4,,,NA,734.9,0.0,3035650,1451631600.0
SEVEN PERSONS AGDM,49.917,-110.917,AB,-6.5,0,NA,11.1,0,-24.8,0,,,NA,10.5,0,NA,,7,,,NA,758.0,0.0,3035845,1451631600.0
STANDARD AGCM,51.228,-112.982,AB,-6.3,1,NA,10.9,0,-23.7,1,,,NA,13.6,2,NA,,3,,,NA,730.4,0.0,3036086,1451631600.0
STAVELY AAFC,50.183,-113.883,AB,-1.4,0,NA,13.6,0,-18.6,0,,,NA,15.6,0,NA,,7,,,NA,602.5,0.0,3036099,1451631600.0
STRATHMORE AGDM,51.033,-113.283,AB,-6.7,0,NA,9.7,0,-23.1,0,,,NA,13.2,4,NA,,2,,,NA,767.1,0.0,3036205,1451631600.0
TABER,49.792,-112.124,AB,-5.8,13,NA,13.5,8,-27.0,9,29.0,8,NA,29.0,8,NA,,8,,,NA,428.2,0.0,3036360,1451631600.0
TRAVERS AGCM,50.304,-112.863,AB,-5.1,3,NA,8.4,3,-21.6,1,,,NA,7.4,3,NA,,4,,,NA,646.3,0.0,3036500,1451631600.0
VAUXHALL CDA CS,50.050,-112.133,AB,-6.7,0,NA,12.6,0,-29.6,0,,,NA,9.4,0,NA,,3,,,NA,766.3,0.0,3036682,1451631600.0
WILDCAT HILLS,51.269,-114.721,AB,-6.2,0,NA,11.5,0,-24.5,0,20.8,0,NA,20.8,0,NA,0.0,8,,,NA,749.6,0.0,3037550,1451631600.0
WRENTHAM AGDM,49.500,-112.117,AB,-5.5,10,NA,11.3,6,-28.4,6,,,NA,6.7,11,NA,,3,,,NA,493.4,0.0,3037675,1451631600.0
OKOTOKS,50.729,-113.961,AB,-5.0,0,3.0,14.0,0,-28.0,0,16.2,0,112.0,16.2,0,109.0,0.0,5,,,NA,714.3,0.0,303M9JM,1451631600.0
DEL BONITA AGDM,49.050,-112.817,AB,-4.7,2,NA,8.0,2,-21.1,1,,,NA,9.8,2,NA,,1,,,NA,658.2,0.0,3042045,1451631600.0
MANYBERRIES AGCM,49.364,-110.678,AB,-8.6,8,NA,9.0,6,-26.1,2,,,NA,4.9,7,NA,,1,,,NA,611.7,0.0,3044203,1451631600.0
MASINASIN AGDM,49.137,-111.652,AB,-4.9,1,NA,12.2,0,-26.6,1,,,NA,7.4,1,NA,0.0,3,,,NA,685.9,0.0,3044232,1451631600.0
MILK RIVER,49.133,-112.050,AB,-5.9,0,NA,13.3,0,-28.3,0,,,NA,5.5,0,NA,1.0,3,,,NA,740.8,0.0,3044533,1451631600.0
ONEFOUR CDA,49.117,-110.467,AB,-7.9,0,NA,10.8,0,-22.4,0,,,NA,3.9,0,NA,0.0,1,,,NA,803.0,0.0,3044923,1451631600.0
PAKOWKI LAKE AGCM,49.225,-111.126,AB,-7.6,1,NA,12.0,1,-27.6,0,,,NA,15.1,1,NA,,6,,,NA,768.2,0.0,3045000,1451631600.0
BANFF CS,51.193,-115.552,AB,-6.5,0,NA,7.3,0,-24.4,0,,,NA,7.9,0,NA,31.0,3,,,NA,758.5,0.0,3050519,1451631600.0
BEAVER MINES,49.468,-114.175,AB,-3.3,17,NA,8.0,16,-24.6,7,,,NA,3.9,21,NA,0.0,1,,,NA,298.4,0.0,3050602,1451631600.0
BOW VALLEY,51.083,-115.067,AB,-4.3,0,NA,9.7,0,-24.6,0,,,NA,11.6,0,NA,,5,,,NA,692.0,0.0,3050778,1451631600.0
CROWSNEST,49.628,-114.482,AB,-4.0,0,NA,8.6,0,-25.0,0,,,NA,1.0,27,NA,,1,,,NA,681.5,0.0,3051R4R,1451631600.0
JASPER WARDEN,52.926,-118.030,AB,-7.0,0,NA,6.4,0,-26.2,0,,,NA,4.2,0,NA,25.0,1,,,NA,776.5,0.0,3053536,1451631600.0
KANANASKIS,51.028,-115.035,AB,-4.2,0,1.8,11.0,0,-21.5,0,13.8,0,63.0,10.2,0,48.0,0.0,6,,,NA,688.9,0.0,3053600,1451631600.0
KANANASKIS POCATERRA,50.713,-115.120,AB,-7.5,26,2.2,5.0,20,-21.0,20,7.0,20,NA,7.0,20,NA,,3,,,NA,127.5,0.0,3053604,1451631600.0
NORDEGG CS,52.492,-116.040,AB,-5.4,0,NA,12.8,0,-25.6,0,,,NA,6.3,0,NA,9.0,3,,,NA,726.1,0.0,3054843,1451631600.0
PEKISKO,50.368,-114.416,AB,-5.5,0,NA,9.1,0,-24.0,0,,,NA,13.8,0,NA,19.0,4,,,NA,729.5,0.0,3055119,1451631600.0
WATERTON PARK GATE,49.131,-113.809,AB,-1.9,0,NA,11.1,0,-25.8,0,,,NA,22.7,0,NA,,7,,,NA,616.0,0.0,3056214,1451631600.0
NAKISKA RIDGETOP,50.943,-115.190,AB,-6.1,2,NA,7.9,2,-16.7,2,,,NA,,,NA,,,,,NA,699.3,0.0,305MGFF,1451631600.0
ATHABASCA AGCM,54.635,-113.382,AB,-9.8,0,NA,7.8,0,-34.8,0,,,NA,18.1,1,NA,,7,,,NA,862.7,0.0,3060330,1451631600.0
ATMORE AGDM,54.782,-112.825,AB,-12.0,2,NA,5.6,2,-35.2,1,,,NA,22.9,2,NA,17.0,7,,,NA,871.1,0.0,3060406,1451631600.0
BARRHEAD CS,54.095,-114.448,AB,-11.2,0,NA,7.7,0,-26.4,0,,,NA,8.4,0,NA,14.0,4,,,NA,906.2,0.0,3060535,1451631600.0
BRULE BLACK CAT,53.350,-117.867,AB,-7.0,13,3.2,11.5,8,-25.5,7,19.4,4,NA,19.4,4,NA,12.0,5,,,NA,450.3,0.0,3060903,1451631600.0
CAMPSIE AUTO,54.131,-114.678,AB,-11.2,0,NA,9.7,0,-26.9,0,,,NA,8.4,0,NA,13.0,4,,,NA,906.4,0.0,3061201,1451631600.0
DAPP AGDM,54.317,-113.950,AB,-13.3,15,NA,6.0,7,-29.6,14,,,NA,3.1,17,NA,,1,,,NA,500.2,0.0,3061975,1451631600.0
EDSON,53.579,-116.465,AB,-8.5,1,NA,12.0,1,-23.9,1,,,NA,15.7,1,NA,,3,,,NA,796.4,0.0,3062239,1451631600.0
EDSON CLIMATE,53.580,-116.453,AB,-8.2,0,NA,11.2,0,-23.7,0,,,NA,9.9,0,NA,28.0,3,,,NA,813.6,0.0,3062246,1451631600.0
ENTWISTLE,53.600,-114.983,AB,-8.8,1,2.5,11.0,1,-24.0,1,10.0,1,NA,10.0,1,NA,28.0,4,,,NA,803.6,0.0,3062451,1451631600.0
EVANSBURG2 AGCM,53.614,-115.062,AB,-5.4,21,NA,9.9,21,-20.9,21,,,NA,0.0,21,NA,,0,,,NA,234.4,0.0,3062476,1451631600.0
FORT ASSINIBOINE AGCM,54.410,-114.769,AB,-10.6,8,NA,7.6,4,-25.6,7,,,NA,9.0,9,NA,,2,,,NA,657.6,0.0,3062660,1451631600.0
FORT MCMURRAY CS,56.651,-111.213,AB,-13.7,0,NA,5.4,0,-36.0,0,,,NA,14.2,0,NA,,2,,,NA,981.5,0.0,3062696,1451631600.0
FORT MCMURRAY A,56.653,-111.223,AB,-13.9,1,NA,5.3,1,-35.4,1,,,NA,8.2,1,NA,,2,,,NA,958.1,0.0,3062697,1451631600.0
HENDRICKSON CREEK,53.795,-118.447,AB,-9.0,4,NA,9.0,4,-30.0,2,,,NA,16.8,5,NA,50.0,4,,,NA,727.7,0.0,3063135,1451631600.0
HIGH PRAIRIE AGDM,55.396,-116.479,AB,-12.0,0,NA,8.3,0,-31.0,0,,,NA,24.6,0,NA,,8,,,NA,928.7,0.0,3063165,1451631600.0
ISLAND LAKE SOUTH,54.821,-113.543,AB,-11.0,0,NA,7.2,0,-34.1,0,,,NA,16.5,5,NA,16.0,6,,,NA,898.2,0.0,3063600,1451631600.0
LAC LA BICHE CLIMATE,54.769,-112.024,AB,-11.7,0,NA,5.9,0,-36.6,0,,,NA,32.3,0,NA,25.0,7,,,NA,921.7,0.0,3063686,1451631600.0
MILDRED LAKE,57.041,-111.559,AB,-13.1,0,NA,6.2,0,-33.0,0,,,NA,15.8,0,NA,,4,,,NA,963.1,0.0,3064528,1451631600.0
RICH LAKE AGDM,54.500,-111.700,AB,-10.4,9,NA,4.3,8,-27.8,7,,,NA,24.8,9,NA,,5,,,NA,624.5,0.0,3065475,1451631600.0
SLAVE LAKE,55.293,-114.777,AB,-11.3,1,NA,7.9,1,-25.6,1,,,NA,25.8,1,NA,,2,,,NA,879.5,0.0,3065995,1451631600.0
SLAVE LAKE RCS,55.293,-114.777,AB,-11.1,0,NA,7.9,0,-25.7,0,,,NA,19.9,0,NA,1.0,7,,,NA,902.5,0.0,3065997,1451631600.0
TAWATINAW AGCM,54.300,-113.520,AB,-10.6,2,NA,6.2,2,-29.9,0,,,NA,11.9,4,NA,,5,,,NA,829.5,0.0,3066367,1451631600.0
WHITECOURT,54.140,-115.784,AB,-8.6,0,NA,13.2,0,-23.5,0,,,NA,,,NA,,,,,NA,823.5,0.0,3067371,1451631600.0
WHITECOURT A,54.144,-115.787,AB,-9.5,1,NA,5.2,1,-23.4,0,,,NA,,,NA,25.0,,,,NA,825.7,0.0,3067373,1451631600.0
WILLOW CREEK 1,53.386,-118.348,AB,-10.1,1,NA,7.3,1,-32.4,0,,,NA,9.0,1,NA,36.0,3,,,NA,843.6,0.0,306GE70,1451631600.0
BEAVERLODGE RCS,55.197,-119.396,AB,-9.0,0,NA,6.9,0,-25.8,0,,,NA,19.0,0,NA,13.0,4,,,NA,836.2,0.0,3070600,1451631600.0
BROWNVALE AGCM,56.118,-117.886,AB,-9.4,8,NA,5.3,5,-26.1,5,,,NA,18.9,11,NA,,5,,,NA,629.5,0.0,3070800,1451631600.0
EAGLESHAM AGCM,55.808,-117.887,AB,-11.9,0,NA,7.2,0,-29.1,0,,,NA,19.0,0,NA,,4,,,NA,928.4,0.0,3072151,1451631600.0
EGG ISLAND,58.981,-110.439,AB,-15.4,7,NA,-1.5,3,-29.1,5,,,NA,,,NA,,,,,NA,802.4,0.0,3072246,1451631600.0
FAIRVIEW AGDM,56.081,-118.439,AB,-11.2,2,NA,5.4,2,-23.2,1,,,NA,36.3,2,NA,,12,,,NA,845.9,0.0,3072525,1451631600.0
FORT CHIPEWYAN,58.767,-111.117,AB,-15.8,0,NA,0.4,0,-37.4,0,,,NA,1.6,0,NA,,1,,,NA,1047.0,0.0,3072655,1451631600.0
FORT CHIPEWYAN RCS,58.767,-111.117,AB,-16.0,0,NA,0.3,0,-37.9,0,,,NA,,,NA,18.0,,,,NA,1054.1,0.0,3072659,1451631600.0
FORT VERMILION,58.382,-116.040,AB,-16.2,2,NA,4.2,2,-31.0,1,,,NA,14.5,2,NA,32.0,5,,,NA,991.7,0.0,3072723,1451631600.0
GRANDE PRAIRIE A,55.180,-118.885,AB,-11.3,0,NA,6.5,0,-24.9,0,28.8,0,NA,23.2,0,NA,15.0,7,,,NA,909.7,0.0,3072921,1451631600.0
HAWK HILLS AGCM,57.265,-117.298,AB,-13.6,0,NA,6.1,0,-34.5,0,,,NA,10.2,0,NA,,3,,,NA,980.6,0.0,3073071,1451631600.0
HIGH LEVEL,58.622,-117.165,AB,-15.3,0,NA,6.0,0,-30.8,0,,,NA,28.6,0,NA,,2,,,NA,1033.7,0.0,3073140,1451631600.0
HIGH LEVEL A,58.621,-117.165,AB,-15.7,0,4.7,6.1,0,-31.7,0,14.8,0,61.0,11.4,0,58.0,29.0,4,,,NA,1043.2,0.0,3073146,1451631600.0
JEAN COTE AGCM,55.913,-117.120,AB,-11.4,0,NA,5.5,0,-26.2,0,,,NA,20.1,0,NA,,5,,,NA,910.6,0.0,3073535,1451631600.0
LA CRETE AGCM,58.172,-116.343,AB,-13.8,2,NA,5.5,1,-32.5,2,,,NA,13.8,2,NA,,3,,,NA,921.9,0.0,3073730,1451631600.0
LA GLACE AGCM,55.422,-119.255,AB,-10.6,0,NA,6.1,0,-29.4,0,,,NA,20.2,0,NA,,5,,,NA,887.5,0.0,3073740,1451631600.0
MANNING AGDM,56.974,-117.451,AB,-14.1,1,NA,6.6,1,-33.6,0,,,NA,,,NA,,,,,NA,963.8,0.0,3074190,1451631600.0
CLEARDALE AGDM,56.314,-119.745,AB,-11.8,2,NA,7.4,2,-25.4,1,,,NA,23.5,2,NA,,4,,,NA,864.0,0.0,3074935,1451631600.0
PEACE RIVER A,56.227,-117.448,AB,-12.4,0,NA,5.5,0,-27.3,0,17.8,0,NA,18.8,0,NA,12.0,5,,,NA,942.5,0.0,3075041,1451631600.0
PEORIA AGDM,55.621,-118.293,AB,-11.6,3,NA,8.7,2,-28.7,1,,,NA,18.5,6,NA,,4,,,NA,828.7,0.0,3075160,1451631600.0
RED EARTH,56.552,-115.278,AB,-12.1,1,NA,6.2,0,-34.1,1,,,NA,25.3,3,NA,17.0,7,,,NA,901.7,0.0,3075488,1451631600.0
RYCROFT AGCM,55.777,-118.668,AB,-11.5,3,NA,8.0,3,-26.2,0,,,NA,17.9,4,NA,,3,,,NA,824.8,0.0,3075601,1451631600.0
SAVANNA AGCM,56.076,-119.345,AB,-9.3,3,NA,6.2,3,-24.0,0,,,NA,18.0,4,NA,,3,,,NA,763.3,0.0,3075770,1451631600.0
SIMONETTE,54.425,-117.741,AB,-4.4,21,5.0,10.0,12,-26.0,12,5.0,12,NA,5.0,12,NA,,1,,,NA,224.0,0.0,3075937,1451631600.0
SPIRIT RIVER AUTO STATION,55.695,-119.230,AB,-6.8,5,NA,7.0,4,-23.3,2,,,NA,23.8,5,NA,38.0,6,,,NA,645.9,0.0,3076069,1451631600.0
TEEPEE CREEK AGCM,55.352,-118.408,AB,-11.2,1,NA,5.8,1,-25.9,0,,,NA,16.0,1,NA,,5,,,NA,876.2,0.0,3076366,1451631600.0
VALLEYVIEW AGDM,55.098,-117.199,AB,-9.5,7,NA,8.9,5,-25.9,3,,,NA,15.3,9,NA,,6,,,NA,660.7,0.0,3076680,1451631600.0
GARDEN RIVER,58.711,-113.866,AB,-16.0,0,NA,1.2,0,-37.3,0,,,NA,,,NA,,,,,NA,1052.9,0.0,307KPFP,1451631600.0
COLD LAKE A,54.417,-110.283,AB,-12.3,0,2.8,4.4,0,-34.6,0,33.5,0,149.0,28.1,0,175.0,24.0,7,,,NA,939.6,0.0,3081680,1451631600.0
DUPRE AGCM,54.367,-110.868,AB,-13.0,1,NA,4.6,0,-39.2,1,,,NA,34.1,2,NA,,8,,,NA,928.7,0.0,3081690,1451631600.0
ABEE AGDM,54.283,-112.967,AB,-6.8,3,NA,8.1,3,-22.4,1,,,NA,7.4,3,NA,,3,,,NA,644.2,0.0,3010010,1454310000.0
ALBERT HALL AGCM,53.113,-111.181,AB,-4.3,0,NA,8.9,0,-19.4,0,,,NA,6.4,0,NA,,2,,,NA,647.4,0.0,3010060,1454310000.0
ALLIANCE AGCM,52.315,-111.779,AB,-2.3,2,NA,12.2,2,-16.0,1,,,NA,7.6,3,NA,,4,,,NA,547.2,0.0,3010162,1454310000.0
ANDREW,54.017,-112.233,AB,-5.6,8,5.0,7.0,8,-19.0,8,16.0,8,NA,18.0,8,NA,,5,,,NA,496.5,0.0,3010234,1454310000.0
ANDREW AGDM,53.917,-112.279,AB,-5.8,1,NA,7.2,1,-20.8,1,,,NA,6.4,3,NA,,3,,,NA,667.4,0.0,3010237,1454310000.0
BELLSHILL AGCM,52.582,-111.465,AB,-5.2,18,NA,10.4,13,-16.6,17,,,NA,1.2,21,NA,,1,,,NA,255.2,0.0,3010650,1454310000.0
BODO AGDM,52.124,-110.101,AB,-3.7,6,NA,11.7,6,-17.8,3,,,NA,11.2,6,NA,,3,,,NA,498.5,0.0,3010730,1454310000.0
BRETON,53.167,-114.483,AB,-5.0,28,NA,6.0,26,-17.0,25,0.0,26,NA,0.0,26,NA,,0,,,NA,23.0,0.0,3010815,1454310000.0
BRETON PLOTS,53.089,-114.441,AB,-1.5,0,NA,15.6,0,-14.3,0,,,NA,14.3,0,NA,,4,,,NA,564.9,0.0,3010816,1454310000.0
BUSBY AGCM,53.931,-113.922,AB,-4.0,0,NA,11.8,0,-18.0,0,,,NA,21.5,0,NA,,9,,,NA,638.1,0.0,3010979,1454310000.0
CADOGAN AGCM,52.334,-110.510,AB,-3.4,2,NA,13.2,2,-18.0,1,,,NA,14.6,3,NA,,3,,,NA,578.4,0.0,3010992,1454310000.0
CAMROSE,53.050,-112.817,AB,-3.1,0,6.6,13.4,0,-18.1,0,,,NA,7.2,0,53.0,5.0,2,,,NA,611.1,0.0,3011240,1454310000.0
CAMROSE 2,52.950,-112.800,AB,-2.4,23,NA,13.0,15,-15.5,15,2.8,12,NA,2.8,12,NA,0.0,1,,,NA,122.6,0.0,3011241,1454310000.0
CARNWOOD,53.234,-114.654,AB,-1.8,0,NA,13.0,0,-16.0,0,16.0,0,NA,16.0,0,NA,15.0,3,,,NA,573.5,0.0,3011350,1454310000.0
CONSORT AGDM,51.937,-110.713,AB,-3.7,5,NA,9.0,5,-17.4,3,,,NA,12.4,6,NA,,2,,,NA,519.8,0.0,3011815,1454310000.0
CORONATION CLIMATE,52.074,-111.449,AB,-4.5,0,NA,6.7,0,-16.9,0,,,NA,8.3,0,NA,1.0,3,,,NA,651.3,0.0,3011887,1454310000.0
CRESTOMERE AGCM,52.733,-113.903,AB,-3.1,3,NA,12.3,3,-17.7,1,,,NA,9.6,3,NA,,2,,,NA,547.7,0.0,3011892,1454310000.0
DAKOTA WEST,52.750,-113.950,AB,-1.9,6,5.7,13.0,6,-15.0,6,11.2,6,NA,11.2,6,NA,5.0,3,,,NA,458.3,0.0,3011953,1454310000.0
DELBURNE AGCM,52.183,-113.176,AB,-2.1,1,NA,11.5,1,-14.4,1,,,NA,7.8,1,NA,,3,,,NA,562.3,0.0,3012050,1454310000.0
DEWBERRY AGCM,53.659,-110.588,AB,-6.0,7,NA,7.2,5,-22.6,4,,,NA,12.4,9,NA,,4,,,NA,527.9,0.0,3012073,1454310000.0
DONALDA SOUTH,52.517,-112.351,AB,-1.6,0,NA,13.5,0,-15.5,0,11.0,0,NA,12.0,0,NA,4.0,3,,,NA,569.8,0.0,3012095,1454310000.0
EDGERTON AGCM,52.778,-110.433,AB,-5.2,5,NA,8.3,4,-17.7,2,,,NA,5.4,6,NA,,2,,,NA,556.9,0.0,3012192,1454310000.0
EDMONTON INTERNATIONAL CS,53.307,-113.606,AB,-3.8,0,NA,12.0,0,-17.7,0,,,NA,,,NA,2.0,,,,NA,632.1,0.0,3012206,1454310000.0
EDMONTON BLATCHFORD,53.573,-113.517,AB,-1.5,0,NA,15.3,0,-14.3,0,,,NA,8.2,0,NA,0.0,4,,,NA,566.3,0.0,3012209,1454310000.0
EDMONTON NAMAO AWOS A,53.667,-113.467,AB,-2.2,1,NA,14.3,1,-14.8,0,,,NA,6.5,1,NA,,3,,,NA,564.3,0.0,3012212,1454310000.0
EDMONTON INTL A,53.310,-113.579,AB,-4.0,0,NA,10.9,0,-17.6,0,11.0,0,NA,10.1,0,NA,7.0,3,,,NA,637.6,0.0,3012216,1454310000.0
EDMONTON VILLENEUVE A,53.668,-113.856,AB,-2.5,1,NA,11.9,1,-14.2,1,,,NA,3.7,1,NA,,1,,,NA,574.2,0.0,3012229,1454310000.0
EDMONTON STONY PLAIN,53.548,-114.108,AB,-1.3,0,6.1,12.8,0,-15.2,0,22.2,0,142.0,15.2,0,104.0,10.0,4,,,NA,560.7,0.0,301222F,1454310000.0
ELK ISLAND NAT PARK,53.683,-112.868,AB,-2.6,0,6.6,13.5,0,-17.8,0,,,NA,8.6,0,76.0,10.0,2,,,NA,597.9,0.0,3012275,1454310000.0
FABYAN,52.967,-111.000,AB,-5.3,0,6.1,8.0,0,-19.0,0,4.0,0,39.0,4.0,0,38.0,,3,,,NA,676.7,0.0,3012515,1454310000.0
FERINTOSH AGCM,52.744,-112.858,AB,-3.7,1,NA,8.9,1,-16.5,1,,,NA,5.5,2,NA,,1,,,NA,608.0,0.0,3012590,1454310000.0
FORESTBURG PLANT SITE,52.467,-112.120,AB,-1.5,2,5.9,12.0,2,-15.0,2,13.8,2,NA,13.8,2,NA,0.0,4,,,NA,527.6,0.0,3012652,1454310000.0
FORESTBURG AGCM,52.548,-112.123,AB,-2.1,1,NA,13.6,1,-15.5,1,,,NA,5.7,2,NA,,3,,,NA,563.0,0.0,3012653,1454310000.0
FORT SASKATCHEWAN,53.717,-113.183,AB,-0.7,18,8.6,8.5,18,-14.0,18,0.0,18,NA,0.0,18,NA,,0,,,NA,206.0,0.0,3012710,1454310000.0
GILT EDGE NORTH AGCM,53.071,-110.621,AB,-5.4,5,NA,5.4,5,-18.6,1,,,NA,6.2,5,NA,,3,,,NA,561.2,0.0,3012790,1454310000.0
GLENEVIS AGCM,53.833,-114.539,AB,-1.3,3,NA,14.0,2,-15.0,2,,,NA,,,NA,,,,,NA,500.5,0.0,3012818,1454310000.0
HALKIRK AGCM,52.116,-112.164,AB,-4.1,0,NA,8.6,0,-16.2,0,,,NA,4.9,4,NA,,2,,,NA,640.7,0.0,3012999,1454310000.0
HEMARUKA AGCM,51.780,-111.212,AB,-5.0,1,NA,8.2,1,-16.5,1,,,NA,9.7,2,NA,,3,,,NA,645.0,0.0,3013140,1454310000.0
HOLDEN AGDM,53.185,-112.246,AB,-4.2,3,NA,9.8,3,-17.8,1,,,NA,7.6,4,NA,,2,,,NA,576.0,0.0,3013340,1454310000.0
HUGHENDEN AGCM,52.578,-110.784,AB,-3.7,3,NA,10.7,3,-17.9,1,,,NA,7.6,4,NA,,3,,,NA,564.7,0.0,3013362,1454310000.0
KILLAM AGDM,52.848,-111.872,AB,-4.1,4,NA,8.4,4,-17.7,1,,,NA,23.2,4,NA,,12,,,NA,552.7,0.0,3013640,1454310000.0
KESSLER AGCM,52.290,-111.113,AB,-2.9,7,NA,12.3,7,-16.7,3,,,NA,4.4,10,NA,,2,,,NA,460.2,0.0,3013644,1454310000.0
KITSCOTY AGCM,53.353,-110.416,AB,-6.0,7,NA,6.3,6,-20.5,4,,,NA,21.9,7,NA,,12,,,NA,527.5,0.0,3013660,1454310000.0
LEGAL AGCM,54.003,-113.474,AB,-4.0,10,NA,10.9,5,-16.7,7,,,NA,9.6,7,NA,,3,,,NA,418.2,0.0,3013790,1454310000.0
LINDBERGH AGDM,53.943,-110.579,AB,-6.5,8,NA,7.6,5,-24.3,4,,,NA,8.7,8,NA,,4,,,NA,513.5,0.0,3013921,1454310000.0
LLOYDMINSTER,53.309,-110.073,AB,-6.5,4,NA,5.8,4,-20.9,4,,,NA,0.0,9,NA,,0,,,NA,613.2,0.0,3013959,1454310000.0
LLOYDMINSTER A,53.309,-110.073,AB,-5.9,0,5.8,5.8,0,-20.8,0,13.2,0,134.0,16.4,0,167.0,10.0,6,,,NA,693.1,0.0,3013961,1454310000.0
HOLDEN SOUTH,53.083,-112.267,AB,,,NA,,,,,11.4,0,107.0,12.2,0,113.0,0.0,3,,,NA,,,3013C44,1454310000.0
MANNVILLE AGCM,53.456,-111.255,AB,-4.6,0,NA,8.2,0,-19.9,0,,,NA,8.1,0,NA,,2,,,NA,654.3,0.0,3014195,1454310000.0
MONITOR,52.017,-110.550,AB,,,NA,,,,,19.4,0,223.0,28.0,0,317.0,0.0,5,,,NA,,,3014600,1454310000.0
MUNDARE AGDM,53.567,-112.300,AB,-4.1,5,NA,12.0,4,-17.0,2,,,NA,7.6,7,NA,,2,,,NA,530.4,0.0,3014665,1454310000.0
MYRNAM AGCM,53.720,-111.114,AB,-5.6,4,NA,9.4,2,-20.7,4,,,NA,12.2,5,NA,,4,,,NA,589.5,0.0,3014690,1454310000.0
NEW SEREPTA AGCM,53.262,-113.165,AB,-3.3,1,NA,14.1,1,-16.0,1,,,NA,5.5,1,NA,,1,,,NA,597.7,0.0,3014795,1454310000.0
OLIVER AGDM,53.650,-113.350,AB,-2.1,4,NA,13.4,4,-18.6,2,,,NA,,,NA,,,,,NA,503.3,0.0,3014921,1454310000.0
RADWAY AGCM,53.995,-112.879,AB,-4.2,0,NA,14.1,0,-21.0,0,,,NA,,,NA,,,,,NA,644.9,0.0,3015346,1454310000.0
RANFURLY AUTO,53.425,-111.726,AB,-4.2,0,NA,10.5,0,-17.5,0,,,NA,9.0,0,NA,11.0,2,,,NA,642.4,0.0,3015401,1454310000.0
RIBSTONE SOUTH AGCM,52.587,-110.343,AB,-4.0,5,NA,9.9,4,-17.7,2,,,NA,9.3,6,NA,,4,,,NA,527.7,0.0,3015480,1454310000.0
RIVERCOURSE AGCM,53.019,-110.102,AB,-6.1,4,NA,6.8,3,-20.1,3,,,NA,5.2,5,NA,,2,,,NA,603.3,0.0,3015501,1454310000.0
ROCKY MTN HOUSE (AUT),52.421,-114.912,AB,-3.7,3,NA,10.4,3,-20.8,3,,,NA,8.5,3,NA,19.0,3,,,NA,563.7,0.0,3015523,1454310000.0
ROSALIND AGCM,52.780,-112.428,AB,-2.5,0,NA,14.2,0,-15.8,0,,,NA,4.2,0,NA,,2,,,NA,594.3,0.0,3015600,1454310000.0
ST. LINA AGCM,54.282,-111.453,AB,-5.1,2,NA,10.8,2,-25.1,1,,,NA,10.7,1,NA,,4,,,NA,624.0,0.0,3015673,1454310000.0
ST. PAUL AGCM,54.011,-111.272,AB,,,NA,2.3,26,-3.6,28,,,NA,,,NA,,,,,NA,,,3015676,1454310000.0
SEDALIA AGCM,51.590,-110.755,AB,-5.9,5,NA,5.4,4,-16.2,2,,,NA,3.2,5,NA,,1,,,NA,573.0,0.0,3015797,1454310000.0
SEDGEWICK TOWN,52.783,-111.700,AB,-4.0,0,6.9,10.0,0,-18.0,0,10.0,0,113.0,10.0,0,112.0,0.0,2,,,NA,638.5,0.0,3015808,1454310000.0
SHONTS AGCM,53.333,-112.539,AB,-3.0,3,NA,14.0,3,-17.3,1,,,NA,5.6,4,NA,,2,,,NA,545.6,0.0,3015900,1454310000.0
SMOKY LAKE AGDM,54.278,-112.499,AB,-3.8,14,NA,10.3,14,-19.1,14,,,NA,6.5,14,NA,,1,,,NA,326.3,0.0,3016022,1454310000.0
SPONDIN AGCM,51.816,-111.683,AB,-5.5,4,NA,5.9,4,-16.6,1,,,NA,10.3,6,NA,,2,,,NA,587.5,0.0,3016070,1454310000.0
STETTLER AGDM,52.347,-112.596,AB,-2.9,1,NA,10.8,1,-14.7,1,,,NA,7.4,1,NA,,3,,,NA,583.8,0.0,3016124,1454310000.0
THORSBY AGCM,53.217,-113.895,AB,-2.7,4,NA,11.3,1,-15.8,4,,,NA,10.2,5,NA,,4,,,NA,517.6,0.0,3016441,1454310000.0
TOMAHAWK AGDM,53.439,-114.718,AB,-1.8,5,NA,13.0,5,-14.7,2,,,NA,21.8,5,NA,,8,,,NA,475.0,0.0,3016505,1454310000.0
TULLIBY LAKE AGCM,53.664,-110.081,AB,-8.8,6,NA,6.8,5,-25.8,4,,,NA,9.1,7,NA,,4,,,NA,616.5,0.0,3016593,1454310000.0
UNCAS,53.500,-113.033,AB,,,NA,,,,,16.5,0,NA,17.0,0,NA,11.0,4,,,NA,,,3016650,1454310000.0
TWO HILLS AGDM,53.625,-111.678,AB,-4.9,3,NA,8.5,2,-19.0,2,,,NA,5.9,4,NA,,1,,,NA,594.7,0.0,3016655,1454310000.0
VERMILION AGDM,53.344,-110.882,AB,-5.1,4,NA,8.0,4,-20.1,1,,,NA,9.3,5,NA,,3,,,NA,578.4,0.0,3016802,1454310000.0
VIKING AGCM,53.182,-111.732,AB,-4.2,10,NA,6.5,10,-16.6,5,,,NA,4.1,10,NA,,2,,,NA,421.2,0.0,3016841,1454310000.0
VIKING NORTH 3,53.283,-111.767,AB,-4.1,0,NA,9.5,0,-16.5,0,12.1,0,NA,13.1,0,NA,12.0,6,,,NA,641.0,0.0,3016845,1454310000.0
VILNA AGCM,54.130,-111.921,AB,-5.5,1,NA,8.2,1,-21.5,1,,,NA,13.8,2,NA,,5,,,NA,657.5,0.0,3016852,1454310000.0
VIOLET GROVE CS,53.144,-115.126,AB,-1.6,1,NA,12.5,1,-14.9,0,,,NA,2.8,25,NA,8.0,1,,,NA,547.7,0.0,3016860,1454310000.0
VEGREVILLE,53.505,-112.098,AB,-3.9,0,6.9,13.2,0,-19.1,0,,,NA,6.5,0,59.0,0.0,2,,,NA,634.6,0.0,3016GF0,1454310000.0
WETASKIWIN AGCM,52.980,-113.444,AB,-3.4,6,NA,10.0,5,-16.6,2,,,NA,5.6,7,NA,,1,,,NA,491.4,0.0,3017282,1454310000.0
EDMONTON STONY PLAIN CS,53.547,-114.108,AB,-1.7,0,NA,12.3,0,-15.2,0,,,NA,14.4,0,NA,20.0,4,,,NA,570.2,0.0,301A001,1454310000.0
ESTHER 1,51.670,-110.206,AB,-4.0,0,NA,9.6,0,-16.6,0,,,NA,7.8,0,NA,,4,,,NA,637.3,0.0,301B460,1454310000.0
UNIVERSITY OF ALBERTA METABOLIC CENTRE,53.517,-113.533,AB,-1.9,0,6.6,13.5,0,-13.0,0,13.0,0,131.0,13.0,0,131.0,4.0,5,,,NA,576.4,0.0,301FFNJ,1454310000.0
WAINWRIGHT CFB AIRFIELD 21,52.829,-111.096,AB,-4.0,0,NA,9.1,0,-17.7,0,,,NA,6.6,0,NA,,3,,,NA,637.1,0.0,301S001,1454310000.0
ACADIA VALLEY,51.066,-110.317,AB,-2.9,2,NA,10.4,2,-14.4,1,,,NA,5.9,3,NA,,2,,,NA,564.0,0.0,3020035,1454310000.0
ATLEE AGCM,50.810,-111.006,AB,-1.9,5,NA,10.4,5,-14.1,1,,,NA,6.3,5,NA,,2,,,NA,476.5,0.0,3020405,1454310000.0
BEISEKER AGCM,51.379,-113.357,AB,-2.1,0,NA,9.9,0,-18.8,0,,,NA,1.5,1,NA,,0,,,NA,583.2,0.0,3020610,1454310000.0
BIG VALLEY AGCM,51.998,-112.803,AB,-2.3,4,NA,7.8,3,-14.2,3,,,NA,33.4,5,NA,,13,,,NA,507.8,0.0,3020679,1454310000.0
CRAIGMYLE AGCM,51.775,-112.252,AB,-4.3,4,NA,7.1,2,-17.3,3,,,NA,11.6,4,NA,,3,,,NA,557.7,0.0,3021912,1454310000.0
CRAIGMYLE,51.767,-112.283,AB,-3.1,1,5.7,16.5,1,-18.0,1,15.5,1,NA,15.5,1,NA,,4,,,NA,590.1,0.0,3021940,1454310000.0
DRUMHELLER EAST,51.445,-112.677,AB,-2.1,0,NA,11.2,0,-15.4,0,,,NA,,,NA,,,,,NA,581.5,0.0,30221LG,1454310000.0
HESPERO AGCM,52.310,-114.486,AB,-5.7,7,NA,8.3,7,-19.8,3,,,NA,6.4,7,NA,,3,,,NA,520.5,0.0,3023200,1454310000.0
HUSSAR AGDM,51.183,-112.500,AB,-2.1,3,NA,13.7,3,-14.9,1,,,NA,6.5,3,NA,,1,,,NA,521.3,0.0,3023402,1454310000.0
LACOMBE CDA 2,52.449,-113.756,AB,-3.8,0,NA,10.8,0,-19.7,0,,,NA,9.1,0,NA,18.0,3,,,NA,631.5,0.0,3023722,1454310000.0
LEEDALE AGDM,52.553,-114.473,AB,-5.9,3,NA,8.3,2,-25.1,2,,,NA,9.6,3,NA,2.0,4,,,NA,621.9,0.0,3023740,1454310000.0
LINDEN AGCM,51.619,-113.656,AB,-2.2,0,NA,12.2,0,-17.0,0,,,NA,4.5,8,NA,,2,,,NA,587.2,0.0,3023850,1454310000.0
MORRIN AGDM,51.660,-112.675,AB,-4.4,1,NA,6.9,1,-18.8,1,,,NA,13.1,1,NA,,3,,,NA,626.4,0.0,3024668,1454310000.0
OLDS AGDM,51.759,-114.085,AB,-1.4,1,NA,13.9,1,-14.2,1,,,NA,7.2,2,NA,,2,,,NA,542.3,0.0,3024925,1454310000.0
OYEN AGDM,51.383,-110.350,AB,-4.3,3,NA,6.1,2,-15.9,3,,,NA,3.9,6,NA,,2,,,NA,579.4,0.0,3024965,1454310000.0
POLLOCKVILLE AGDM,51.125,-111.705,AB,-3.5,10,NA,7.8,10,-18.0,5,,,NA,7.4,10,NA,,2,,,NA,409.3,0.0,3025243,1454310000.0
PRENTISS,52.433,-113.600,AB,-2.2,2,NA,11.4,2,-14.6,1,,,NA,8.9,3,NA,,3,,,NA,546.2,0.0,3025297,1454310000.0
RED DEER REGIONAL A,52.182,-113.894,AB,-5.2,0,NA,8.4,0,-21.1,0,9.4,1,NA,10.2,1,NA,25.0,3,,,NA,674.0,0.0,3025481,1454310000.0
SCHULER AGDM,50.307,-110.091,AB,-1.1,5,NA,13.2,3,-14.3,4,,,NA,6.4,6,NA,,1,,,NA,459.0,0.0,3025768,1454310000.0
SIBBALD WESTGARD,51.425,-110.146,AB,-4.5,3,NA,7.0,3,-16.0,3,8.0,3,NA,9.4,3,NA,4.0,3,,,NA,583.8,0.0,3025928,1454310000.0
THREE HILLS,51.768,-113.206,AB,-3.4,2,NA,6.8,2,-15.3,1,,,NA,7.0,3,NA,,2,,,NA,578.7,0.0,3026479,1454310000.0
SUNDRE A,51.778,-114.683,AB,-1.5,0,NA,17.2,0,-20.1,0,,,NA,1.6,0,NA,1.0,1,,,NA,565.7,0.0,3026KNQ,1454310000.0
WIMBORNE AGCM,51.936,-113.591,AB,-2.7,5,NA,10.5,5,-15.2,1,,,NA,5.0,6,NA,,2,,,NA,495.6,0.0,3027582,1454310000.0
AZURE,50.512,-114.013,AB,0.5,4,NA,15.2,4,-13.6,1,,,NA,8.2,7,NA,,4,,,NA,437.1,0.0,3030450,1454310000.0
BARNWELL AGDM,49.800,-112.300,AB,1.8,9,NA,17.6,4,-13.4,6,,,NA,4.3,8,NA,,1,,,NA,323.5,0.0,3030525,1454310000.0
BARONS AGCM,50.026,-113.224,AB,0.2,8,NA,16.1,7,-17.6,4,,,NA,1.1,9,NA,,0,,,NA,372.9,0.0,3030529,1454310000.0
BASSANO AGCM,50.893,-112.465,AB,-1.7,6,NA,16.8,4,-13.1,4,,,NA,10.6,7,NA,,2,,,NA,454.0,0.0,3030540,1454310000.0
BLACK DIAMOND,50.707,-114.152,AB,-0.4,4,NA,16.8,2,-15.8,3,,,NA,0.0,28,NA,,0,,,NA,461.1,0.0,3030680,1454310000.0
BLOOD TRIBE AGDM,49.567,-113.050,AB,2.4,3,NA,16.1,2,-11.9,2,,,NA,0.4,5,NA,,0,,,NA,405.4,0.0,3030720,1454310000.0
BOW ISLAND,49.734,-111.450,AB,1.5,0,NA,19.0,0,-15.3,0,,,NA,2.5,0,NA,,1,,,NA,478.1,0.0,3030768,1454310000.0
BOW ISLAND IRRIGATION AGDM,49.867,-111.383,AB,1.0,0,NA,17.8,0,-14.5,0,,,NA,6.2,0,NA,,2,,,NA,492.6,0.0,3030772,1454310000.0
BROCKET AGDM,49.617,-113.817,AB,2.7,3,NA,14.2,3,-11.9,1,,,NA,0.0,19,NA,,0,,,NA,397.3,0.0,3030830,1454310000.0
BROOKS,50.555,-111.849,AB,-0.3,0,NA,18.3,0,-13.5,0,,,NA,5.9,0,NA,0.0,1,,,NA,532.0,0.0,3030QLP,1454310000.0
CALGARY INTL A,51.123,-114.013,AB,1.4,0,NA,16.9,0,-11.3,0,1.8,0,NA,2.2,0,NA,0.0,1,,,NA,480.5,0.0,3031092,1454310000.0
CALGARY INT'L CS,51.109,-114.000,AB,0.8,0,NA,16.6,0,-12.6,0,,,NA,1.7,0,NA,0.0,0,,,NA,499.2,0.0,3031094,1454310000.0
CARDSTON,49.201,-113.286,AB,3.4,0,NA,19.0,0,-12.0,0,,,NA,0.5,0,NA,,0,,,NA,423.8,0.0,3031322,1454310000.0
CARWAY,49.001,-113.376,AB,1.8,2,NA,15.5,2,-13.6,1,,,NA,0.2,2,NA,,0,,,NA,437.9,0.0,3031402,1454310000.0
CHAMPION AGDM,50.282,-113.350,AB,0.7,0,NA,18.2,0,-17.7,0,,,NA,5.0,1,NA,,2,,,NA,502.9,0.0,3031480,1454310000.0
CLARESHOLM,50.004,-113.639,AB,1.8,0,NA,17.3,0,-13.5,0,,,NA,2.2,0,NA,0.0,1,,,NA,469.5,0.0,3031640,1454310000.0
COP UPPER,51.076,-114.222,AB,1.4,2,NA,14.6,1,-10.7,2,,,NA,0.0,3,NA,,0,,,NA,447.2,0.0,3031875,1454310000.0
ENCHANT AGDM,50.183,-112.433,AB,1.0,2,NA,18.6,2,-15.5,1,,,NA,2.2,3,NA,,0,,,NA,459.6,0.0,3032422,1454310000.0
ETZIKOM AGCM,49.553,-111.054,AB,-0.1,4,NA,12.8,4,-17.5,2,,,NA,8.8,4,NA,,2,,,NA,452.8,0.0,3032450,1454310000.0
FINCASTLE AGDM,49.800,-112.033,AB,2.0,0,NA,18.0,0,-18.2,0,,,NA,4.6,1,NA,,2,,,NA,463.4,0.0,3032550,1454310000.0
FOREMOST AGDM,49.483,-111.486,AB,0.7,7,NA,19.1,4,-12.1,4,,,NA,5.9,8,NA,,1,,,NA,380.6,0.0,3032642,1454310000.0
FORT MACLEOD AGCM,49.786,-113.379,AB,2.3,0,NA,16.4,0,-13.9,0,,,NA,1.8,5,NA,,1,,,NA,454.3,0.0,3032683,1454310000.0
GLEICHEN AGCM,50.934,-112.941,AB,-0.4,0,NA,15.3,0,-12.8,0,,,NA,0.8,16,NA,,0,,,NA,532.2,0.0,3032801,1454310000.0
GRASSY LAKE,49.874,-111.733,AB,1.4,1,NA,18.0,1,-16.8,1,,,NA,2.3,1,NA,,0,,,NA,464.6,0.0,3032927,1454310000.0
IRON SPRINGS AGDM,49.900,-112.733,AB,1.3,5,NA,17.2,5,-15.8,2,,,NA,4.7,6,NA,,1,,,NA,401.8,0.0,3033498,1454310000.0
IRVINE AGCM,49.989,-110.261,AB,0.3,3,NA,16.5,3,-11.7,1,,,NA,7.5,4,NA,,2,,,NA,459.6,0.0,3033550,1454310000.0
LETHBRIDGE,49.630,-112.799,AB,2.6,3,NA,17.8,3,-12.4,3,,,NA,0.6,3,NA,,0,,,NA,400.7,0.0,3033875,1454310000.0
LETHBRIDGE CDA,49.695,-112.768,AB,3.5,0,NA,18.3,0,-11.8,0,,,NA,1.8,0,NA,,1,,,NA,421.5,0.0,3033890,1454310000.0
LETHBRIDGE CDA 2,49.700,-112.783,AB,,,NA,,,,,1.0,0,NA,1.1,0,NA,2.0,1,,,NA,,,3033892,1454310000.0
LETHBRIDGE DEMO FARM AGDM,49.683,-112.750,AB,2.4,2,NA,17.6,2,-13.1,1,,,NA,1.3,3,NA,,0,,,NA,420.4,0.0,3033897,1454310000.0
MEDICINE HAT,50.019,-110.721,AB,0.7,0,NA,17.9,0,-11.7,0,,,NA,6.9,3,NA,,2,,,NA,500.5,0.0,3034479,1454310000.0
MEDICINE HAT RCS,50.025,-110.717,AB,0.8,0,NA,17.7,0,-11.4,0,,,NA,9.4,0,NA,2.0,2,,,NA,498.1,0.0,3034485,1454310000.0
MOSSLEIGH AGCM,50.673,-113.349,AB,0.4,3,NA,17.5,2,-17.9,2,,,NA,0.4,4,NA,,0,,,NA,457.7,0.0,3034577,1454310000.0
NIER AGDM,51.369,-114.099,AB,1.2,7,NA,16.8,4,-13.3,4,,,NA,1.3,6,NA,,0,,,NA,368.8,0.0,3034795,1454310000.0
PINCHER CREEK,49.521,-113.997,AB,2.5,6,NA,13.9,6,-12.1,5,,,NA,0.0,6,NA,,0,,,NA,355.5,0.0,3035198,1454310000.0
PINCHER CREEK CLIMATE,49.522,-114.005,AB,2.5,0,NA,13.8,0,-12.5,0,,,NA,0.5,0,NA,,0,,,NA,449.7,0.0,3035208,1454310000.0
QUEENSTOWN,50.606,-112.983,AB,0.3,0,5.9,18.5,0,-14.0,0,0.0,0,0.0,0.0,0,0.0,0.0,0,,,NA,513.8,0.0,3035340,1454310000.0
QUEENSTOWN,50.598,-112.803,AB,0.2,2,NA,18.1,2,-13.7,1,,,NA,16.0,2,NA,,5,,,NA,479.3,0.0,3035342,1454310000.0
RAYMOND AGDM,49.483,-112.683,AB,2.8,1,NA,18.0,1,-12.2,1,,,NA,0.9,1,NA,,0,,,NA,426.3,0.0,3035422,1454310000.0
ROLLING HILLS AGCM,50.265,-111.701,AB,0.2,2,NA,19.3,2,-12.5,1,,,NA,2.6,3,NA,,1,,,NA,480.9,0.0,3035530,1454310000.0
ROSEMARY AGDM,50.833,-112.050,AB,-2.1,3,NA,15.4,2,-27.2,2,,,NA,11.7,7,NA,,2,,,NA,522.3,0.0,3035650,1454310000.0
SEVEN PERSONS AGDM,49.917,-110.917,AB,0.7,0,NA,17.8,0,-12.6,0,,,NA,7.8,0,NA,,2,,,NA,503.1,0.0,3035845,1454310000.0
STANDARD AGCM,51.228,-112.982,AB,-0.1,6,NA,14.7,6,-12.4,3,,,NA,0.8,7,NA,,0,,,NA,415.3,0.0,3036086,1454310000.0
STAVELY AAFC,50.183,-113.883,AB,2.0,0,NA,16.3,0,-11.5,0,,,NA,4.0,0,NA,,1,,,NA,464.2,0.0,3036099,1454310000.0
STRATHMORE AGDM,51.033,-113.283,AB,-0.4,0,NA,15.0,0,-12.7,0,,,NA,8.3,3,NA,,1,,,NA,534.5,0.0,3036205,1454310000.0
TABER,49.792,-112.124,AB,1.0,15,NA,17.0,10,-15.0,10,3.0,10,NA,3.0,10,NA,0.0,2,,,NA,238.6,0.0,3036360,1454310000.0
TRAVERS AGCM,50.304,-112.863,AB,0.7,8,NA,17.9,7,-12.8,4,,,NA,4.1,9,NA,,2,,,NA,363.6,0.0,3036500,1454310000.0
VAUXHALL CDA CS,50.050,-112.133,AB,1.4,0,NA,18.8,0,-15.1,0,,,NA,1.8,0,NA,,1,,,NA,482.1,0.0,3036682,1454310000.0
WILDCAT HILLS,51.269,-114.721,AB,-0.6,0,NA,15.5,0,-17.5,0,1.8,0,NA,1.8,0,NA,0.0,1,,,NA,540.1,0.0,3037550,1454310000.0
WRENTHAM AGDM,49.500,-112.117,AB,1.6,10,NA,18.1,9,-12.8,2,,,NA,0.9,10,NA,,0,,,NA,311.5,0.0,3037675,1454310000.0
OKOTOKS,50.729,-113.961,AB,0.9,0,5.8,17.0,0,-14.0,0,2.3,0,13.0,3.0,0,17.0,0.0,1,,,NA,496.7,0.0,303M9JM,1454310000.0
DEL BONITA AGDM,49.050,-112.817,AB,1.5,1,NA,16.0,1,-11.5,1,,,NA,0.0,1,NA,,0,,,NA,461.2,0.0,3042045,1454310000.0
MANYBERRIES AGCM,49.364,-110.678,AB,-0.5,10,NA,17.2,10,-15.1,2,,,NA,3.4,10,NA,,1,,,NA,350.9,0.0,3044203,1454310000.0
MASINASIN AGDM,49.137,-111.652,AB,2.2,3,NA,20.4,2,-11.0,2,,,NA,2.1,3,NA,0.0,2,,,NA,410.4,0.0,3044232,1454310000.0
MILK RIVER,49.133,-112.050,AB,1.7,0,NA,20.0,0,-13.2,0,,,NA,2.9,0,NA,0.0,1,,,NA,471.9,0.0,3044533,1454310000.0
ONEFOUR CDA,49.117,-110.467,AB,0.6,0,NA,18.0,0,-15.0,0,,,NA,6.3,0,NA,1.0,2,,,NA,505.6,0.0,3044923,1454310000.0
PAKOWKI LAKE AGCM,49.225,-111.126,AB,1.3,5,NA,19.0,3,-11.3,5,,,NA,8.4,6,NA,,2,,,NA,401.0,0.0,3045000,1454310000.0
BANFF CS,51.193,-115.552,AB,-1.0,0,NA,9.2,0,-16.7,0,,,NA,6.4,0,NA,11.0,3,,,NA,551.6,0.0,3050519,1454310000.0
BEAVER MINES,49.468,-114.175,AB,3.1,12,NA,12.6,10,-10.5,8,,,NA,0.0,19,NA,2.0,0,,,NA,253.4,0.0,3050602,1454310000.0
BOW VALLEY,51.083,-115.067,AB,1.4,2,NA,13.7,2,-12.6,0,,,NA,1.7,2,NA,,1,,,NA,448.7,0.0,3050778,1454310000.0
CROWSNEST,49.628,-114.482,AB,1.5,0,NA,12.0,0,-13.7,0,,,NA,2.4,21,NA,,1,,,NA,477.4,0.0,3051R4R,1454310000.0
JASPER WARDEN,52.926,-118.030,AB,0.1,1,NA,12.9,1,-15.8,0,,,NA,6.5,1,NA,20.0,1,,,NA,501.3,0.0,3053536,1454310000.0
KANANASKIS,51.028,-115.035,AB,1.6,0,6.3,14.0,0,-14.0,0,2.6,0,11.0,1.8,0,9.0,0.0,1,,,NA,474.6,0.0,3053600,1454310000.0
KANANASKIS POCATERRA,50.713,-115.120,AB,-2.8,25,5.4,8.0,18,-15.0,18,7.0,18,NA,7.0,18,NA,40.0,2,,,NA,83.0,0.0,3053604,1454310000.0
NORDEGG CS,52.492,-116.040,AB,-0.4,0,NA,14.0,0,-20.4,0,,,NA,9.6,0,NA,5.0,1,,,NA,532.9,0.0,3054843,1454310000.0
PEKISKO,50.368,-114.416,AB,0.6,1,NA,14.3,1,-13.8,1,,,NA,5.7,1,NA,11.0,2,,,NA,486.0,0.0,3055119,1454310000.0
WATERTON PARK GATE,49.131,-113.809,AB,3.6,0,NA,14.8,0,-12.6,0,,,NA,4.2,0,NA,,1,,,NA,418.0,0.0,3056214,1454310000.0
NAKISKA RIDGETOP,50.943,-115.190,AB,-4.8,8,NA,6.8,7,-15.4,3,,,NA,,,NA,,,,,NA,478.8,0.0,305MGFF,1454310000.0
ATHABASCA AGCM,54.635,-113.382,AB,-3.1,0,NA,12.8,0,-17.1,0,,,NA,11.6,0,NA,,3,,,NA,612.8,0.0,3060330,1454310000.0
ATMORE AGDM,54.782,-112.825,AB,-5.4,2,NA,9.4,1,-19.9,2,,,NA,15.0,3,NA,19.0,6,,,NA,631.8,0.0,3060406,1454310000.0
BARRHEAD CS,54.095,-114.448,AB,-3.5,0,NA,12.6,0,-19.7,0,,,NA,14.3,0,NA,13.0,5,,,NA,622.2,0.0,3060535,1454310000.0
BRULE BLACK CAT,53.350,-117.867,AB,0.3,9,6.9,14.5,5,-15.5,6,1.4,3,NA,21.0,3,NA,4.0,3,,,NA,353.4,0.0,3060903,1454310000.0
CAMPSIE AUTO,54.131,-114.678,AB,-3.7,0,NA,12.4,0,-19.9,0,,,NA,14.3,0,NA,15.0,5,,,NA,629.8,0.0,3061201,1454310000.0
DAPP AGDM,54.317,-113.950,AB,-7.1,16,NA,6.4,8,-23.3,13,,,NA,2.4,16,NA,,0,,,NA,326.3,0.0,3061975,1454310000.0
EDSON,53.579,-116.465,AB,-2.5,1,NA,15.1,1,-17.9,1,,,NA,13.9,1,NA,,3,,,NA,573.8,0.0,3062239,1454310000.0
EDSON CLIMATE,53.580,-116.453,AB,-2.3,0,NA,14.8,0,-16.9,0,,,NA,17.6,0,NA,28.0,7,,,NA,587.6,0.0,3062246,1454310000.0
ENTWISTLE,53.600,-114.983,AB,-1.1,2,6.4,15.5,2,-15.0,2,16.0,2,NA,16.0,2,NA,31.0,5,,,NA,514.9,0.0,3062451,1454310000.0
EVANSBURG2 AGCM,53.614,-115.062,AB,-3.7,0,NA,13.1,0,-19.7,0,,,NA,13.2,0,NA,,5,,,NA,630.5,0.0,3062476,1454310000.0
FORT ASSINIBOINE AGCM,54.410,-114.769,AB,-3.8,16,NA,9.7,9,-17.2,14,,,NA,9.2,16,NA,,5,,,NA,283.2,0.0,3062660,1454310000.0
FORT MCMURRAY CS,56.651,-111.213,AB,-9.8,0,NA,8.6,0,-31.5,0,,,NA,14.6,0,NA,,6,,,NA,806.6,0.0,3062696,1454310000.0
FORT MCMURRAY A,56.653,-111.223,AB,-9.8,1,NA,8.8,1,-30.4,0,,,NA,5.4,1,NA,,2,,,NA,778.4,0.0,3062697,1454310000.0
HENDRICKSON CREEK,53.795,-118.447,AB,-3.7,4,NA,11.3,3,-21.7,2,,,NA,9.8,4,NA,55.0,1,,,NA,543.0,0.0,3063135,1454310000.0
HIGH PRAIRIE AGDM,55.396,-116.479,AB,-4.1,0,NA,9.5,0,-20.0,0,,,NA,14.5,0,NA,,6,,,NA,642.2,0.0,3063165,1454310000.0
ISLAND LAKE SOUTH,54.821,-113.543,AB,-4.0,0,NA,10.9,0,-18.0,0,,,NA,14.8,0,NA,9.0,5,,,NA,638.0,0.0,3063600,1454310000.0
LAC LA BICHE CLIMATE,54.769,-112.024,AB,-5.2,0,NA,10.2,0,-23.0,0,,,NA,12.6,0,NA,21.0,5,,,NA,673.9,0.0,3063686,1454310000.0
MILDRED LAKE,57.041,-111.559,AB,-10.8,0,NA,7.3,0,-33.0,0,,,NA,24.1,0,NA,,7,,,NA,834.6,0.0,3064528,1454310000.0
RICH LAKE AGDM,54.500,-111.700,AB,-6.4,0,NA,8.7,0,-26.3,0,,,NA,11.5,0,NA,,4,,,NA,708.0,0.0,3065475,1454310000.0
SLAVE LAKE,55.293,-114.777,AB,-4.8,1,NA,6.7,1,-16.8,1,,,NA,7.1,1,NA,,2,,,NA,639.7,0.0,3065995,1454310000.0
SLAVE LAKE RCS,55.293,-114.777,AB,-4.9,0,NA,6.6,0,-17.1,0,,,NA,12.4,0,NA,1.0,3,,,NA,663.1,0.0,3065997,1454310000.0
TAWATINAW AGCM,54.300,-113.520,AB,-4.6,5,NA,6.4,5,-17.8,1,,,NA,8.1,5,NA,,3,,,NA,541.9,0.0,3066367,1454310000.0
WHITECOURT,54.140,-115.784,AB,-2.1,5,NA,10.6,5,-15.1,4,,,NA,,,NA,,,,,NA,482.2,0.0,3067371,1454310000.0
WHITECOURT A,54.144,-115.787,AB,-2.6,0,NA,11.6,0,-15.2,0,,,NA,,,NA,25.0,,,,NA,597.6,0.0,3067373,1454310000.0
WILLOW CREEK 1,53.386,-118.348,AB,-4.6,13,NA,6.2,13,-22.5,7,,,NA,17.3,13,NA,41.0,5,,,NA,361.3,0.0,306GE70,1454310000.0
BEAVERLODGE RCS,55.197,-119.396,AB,-2.8,0,NA,10.0,0,-14.2,0,,,NA,16.4,0,NA,12.0,5,,,NA,602.6,0.0,3070600,1454310000.0
BROWNVALE AGCM,56.118,-117.886,AB,-5.6,10,NA,6.2,7,-17.3,6,,,NA,16.5,10,NA,,4,,,NA,447.7,0.0,3070800,1454310000.0
EAGLESHAM AGCM,55.808,-117.887,AB,-4.4,0,NA,8.4,0,-19.6,0,,,NA,12.1,0,NA,,5,,,NA,648.5,0.0,3072151,1454310000.0
EGG ISLAND,58.981,-110.439,AB,-20.6,10,NA,-7.4,8,-33.9,9,,,NA,,,NA,,,,,NA,733.1,0.0,3072246,1454310000.0
FAIRVIEW AGDM,56.081,-118.439,AB,-5.9,3,NA,7.7,2,-21.0,2,,,NA,5.4,4,NA,,2,,,NA,620.6,0.0,3072525,1454310000.0
FORT CHIPEWYAN,58.767,-111.117,AB,-17.9,0,NA,3.7,0,-34.1,0,,,NA,1.2,0,NA,,0,,,NA,1042.3,0.0,3072655,1454310000.0
FORT CHIPEWYAN RCS,58.767,-111.117,AB,-18.1,0,NA,3.3,0,-34.6,0,,,NA,,,NA,26.0,,,,NA,1047.0,0.0,3072659,1454310000.0
FORT VERMILION,58.382,-116.040,AB,-13.0,0,NA,4.4,0,-33.3,0,,,NA,28.6,0,NA,47.0,9,,,NA,899.6,0.0,3072723,1454310000.0
GRANDE PRAIRIE A,55.180,-118.885,AB,-4.1,1,NA,8.4,1,-20.5,0,13.0,2,NA,11.6,2,NA,16.0,4,,,NA,618.5,0.0,3072921,1454310000.0
HAWK HILLS AGCM,57.265,-117.298,AB,-8.4,0,NA,8.6,0,-23.5,0,,,NA,14.0,0,NA,,5,,,NA,765.3,0.0,3073071,1454310000.0
HIGH LEVEL,58.622,-117.165,AB,-12.8,0,NA,8.6,0,-34.2,0,,,NA,13.4,0,NA,,4,,,NA,894.4,0.0,3073140,1454310000.0
HIGH LEVEL A,58.621,-117.165,AB,-13.0,0,3.9,9.0,0,-33.6,0,40.4,0,191.0,21.5,0,123.0,48.0,8,,,NA,898.4,0.0,3073146,1454310000.0
JEAN COTE AGCM,55.913,-117.120,AB,-4.6,0,NA,6.5,0,-16.3,0,,,NA,9.0,1,NA,,2,,,NA,654.8,0.0,3073535,1454310000.0
LA CRETE AGCM,58.172,-116.343,AB,-12.1,0,NA,7.1,0,-30.7,0,,,NA,15.4,0,NA,,5,,,NA,871.5,0.0,3073730,1454310000.0
LA GLACE AGCM,55.422,-119.255,AB,-5.0,0,NA,8.2,0,-22.9,0,,,NA,12.0,0,NA,,4,,,NA,666.7,0.0,3073740,1454310000.0
MANNING AGDM,56.974,-117.451,AB,-7.9,6,NA,6.2,6,-20.8,2,,,NA,,,NA,,,,,NA,596.8,0.0,3074190,1454310000.0
CLEARDALE AGDM,56.314,-119.745,AB,-4.9,2,NA,9.5,2,-20.6,1,,,NA,20.5,3,NA,,11,,,NA,619.4,0.0,3074935,1454310000.0
PEACE RIVER A,56.227,-117.448,AB,-5.7,0,NA,7.1,0,-18.8,0,10.5,0,NA,8.1,0,NA,13.0,2,,,NA,686.0,0.0,3075041,1454310000.0
PEORIA AGDM,55.621,-118.293,AB,-4.3,4,NA,9.8,4,-20.0,1,,,NA,9.9,5,NA,,3,,,NA,557.7,0.0,3075160,1454310000.0
RED EARTH,56.552,-115.278,AB,-6.6,3,NA,10.5,1,-23.3,3,,,NA,17.7,4,NA,17.0,6,,,NA,638.8,0.0,3075488,1454310000.0
RYCROFT AGCM,55.777,-118.668,AB,-4.0,4,NA,10.0,3,-17.1,3,,,NA,6.7,5,NA,,2,,,NA,549.3,0.0,3075601,1454310000.0
SAVANNA AGCM,56.076,-119.345,AB,-4.6,3,NA,7.4,3,-18.0,2,,,NA,12.9,3,NA,,6,,,NA,588.3,0.0,3075770,1454310000.0
SIMONETTE,54.425,-117.741,AB,-1.2,11,5.6,11.0,8,-17.0,7,1.0,8,NA,1.0,8,NA,,1,,,NA,346.0,0.0,3075937,1454310000.0
SPIRIT RIVER AUTO STATION,55.695,-119.230,AB,-2.7,3,NA,10.3,3,-17.2,2,,,NA,13.2,4,NA,30.0,4,,,NA,537.9,0.0,3076069,1454310000.0
TEEPEE CREEK AGCM,55.352,-118.408,AB,-5.1,5,NA,6.3,5,-20.6,2,,,NA,8.8,5,NA,,3,,,NA,555.3,0.0,3076366,1454310000.0
VALLEYVIEW AGDM,55.098,-117.199,AB,-3.6,5,NA,8.8,5,-14.8,1,,,NA,9.8,5,NA,,4,,,NA,517.3,0.0,3076680,1454310000.0
GARDEN RIVER,58.711,-113.866,AB,-14.8,0,NA,5.9,0,-35.6,0,,,NA,,,NA,,,,,NA,952.0,0.0,307KPFP,1454310000.0
COLD LAKE A,54.417,-110.283,AB,-6.6,0,5.2,8.4,0,-25.9,0,19.1,0,125.0,13.7,0,127.0,25.0,5,,,NA,714.1,0.0,3081680,1454310000.0
DUPRE AGCM,54.367,-110.868,AB,-7.1,0,NA,10.5,0,-28.2,0,,,NA,14.7,0,NA,,5,,,NA,728.3,0.0,3081690,1454310000.0
ABEE AGDM,54.283,-112.967,AB,-2.8,6,NA,9.9,3,-17.8,4,,,NA,24.5,6,NA,,11,,,NA,518.8,0.0,3010010,1456815600.0
ALBERT HALL AGCM,53.113,-111.181,AB,0.0,0,NA,13.3,0,-12.0,0,,,NA,23.8,0,NA,,7,,,NA,558.9,0.0,3010060,1456815600.0
ALLIANCE AGCM,52.315,-111.779,AB,1.2,1,NA,15.7,0,-8.3,1,,,NA,19.8,1,NA,,6,,,NA,503.4,0.0,3010162,1456815600.0
ANDREW,54.017,-112.233,AB,-0.2,6,4.8,12.0,6,-13.0,6,21.0,6,NA,21.0,6,NA,,7,,,NA,455.5,0.0,3010234,1456815600.0
ANDREW AGDM,53.917,-112.279,AB,-1.0,2,NA,10.8,1,-14.1,1,,,NA,17.7,2,NA,,7,,,NA,551.6,0.0,3010237,1456815600.0
BELLSHILL AGCM,52.582,-111.465,AB,0.2,18,NA,15.5,13,-7.4,11,,,NA,6.8,19,NA,,2,,,NA,230.8,0.0,3010650,1456815600.0
BODO AGDM,52.124,-110.101,AB,0.5,3,NA,16.4,2,-11.8,1,,,NA,16.2,3,NA,,3,,,NA,490.7,0.0,3010730,1456815600.0
BRETON,53.167,-114.483,AB,,,NA,15.0,26,-11.0,26,14.0,28,NA,50.0,28,NA,,2,,,NA,,,3010815,1456815600.0
BRETON PLOTS,53.089,-114.441,AB,1.8,0,NA,13.1,0,-10.5,0,,,NA,20.1,0,NA,,4,,,NA,503.5,0.0,3010816,1456815600.0
BUSBY AGCM,53.931,-113.922,AB,-0.1,0,NA,11.2,0,-12.1,0,,,NA,25.1,0,NA,,6,,,NA,562.3,0.0,3010979,1456815600.0
CADOGAN AGCM,52.334,-110.510,AB,1.0,3,NA,16.7,1,-12.2,2,,,NA,18.0,3,NA,,4,,,NA,476.9,0.0,3010992,1456815600.0
CAMROSE,53.050,-112.817,AB,1.1,0,5.2,15.8,0,-13.9,0,,,NA,13.2,0,59.0,,2,,,NA,524.4,0.0,3011240,1456815600.0
CAMROSE 2,52.950,-112.800,AB,2.9,28,NA,15.5,20,-15.0,19,6.0,20,NA,6.0,20,NA,0.0,1,,,NA,45.4,0.0,3011241,1456815600.0
CARNWOOD,53.234,-114.654,AB,1.9,0,NA,14.0,0,-14.0,0,11.0,0,NA,11.0,0,NA,0.0,3,,,NA,500.4,0.0,3011350,1456815600.0
CONSORT AGDM,51.937,-110.713,AB,0.3,6,NA,15.5,4,-11.4,2,,,NA,14.4,7,NA,,5,,,NA,441.6,0.0,3011815,1456815600.0
CORONATION CLIMATE,52.074,-111.449,AB,0.7,0,NA,14.6,0,-10.3,0,,,NA,14.1,0,NA,1.0,5,,,NA,536.6,0.0,3011887,1456815600.0
CRESTOMERE AGCM,52.733,-113.903,AB,2.1,16,NA,12.8,12,-11.4,6,,,NA,5.3,16,NA,,1,,,NA,239.2,0.0,3011892,1456815600.0
DAKOTA WEST,52.750,-113.950,AB,1.1,11,4.4,14.0,11,-14.0,11,3.2,11,NA,3.2,11,NA,,1,,,NA,338.1,0.0,3011953,1456815600.0
DELBURNE AGCM,52.183,-113.176,AB,1.7,2,NA,15.1,1,-9.8,1,,,NA,11.6,3,NA,,5,,,NA,471.6,0.0,3012050,1456815600.0
DEWBERRY AGCM,53.659,-110.588,AB,-2.8,11,NA,9.2,7,-15.2,5,,,NA,8.4,10,NA,,4,,,NA,415.4,0.0,3012073,1456815600.0
DONALDA SOUTH,52.517,-112.351,AB,1.6,0,NA,17.0,0,-12.0,0,13.1,0,NA,20.4,0,NA,0.0,5,,,NA,507.3,0.0,3012095,1456815600.0
EDGERTON AGCM,52.778,-110.433,AB,-0.1,6,NA,13.3,4,-12.0,2,,,NA,11.5,6,NA,,4,,,NA,453.5,0.0,3012192,1456815600.0
EDMONTON INTERNATIONAL CS,53.307,-113.606,AB,1.2,0,NA,14.2,0,-15.4,0,,,NA,,,NA,,,,,NA,519.6,0.0,3012206,1456815600.0
EDMONTON BLATCHFORD,53.573,-113.517,AB,2.4,0,NA,14.0,0,-9.8,0,,,NA,14.3,0,NA,,4,,,NA,482.7,0.0,3012209,1456815600.0
EDMONTON NAMAO AWOS A,53.667,-113.467,AB,1.2,0,NA,13.3,0,-9.2,0,,,NA,10.5,1,NA,,5,,,NA,520.2,0.0,3012212,1456815600.0
EDMONTON INTL A,53.310,-113.579,AB,1.2,0,NA,13.8,0,-15.0,0,7.2,0,NA,10.7,1,NA,,2,,,NA,522.0,0.0,3012216,1456815600.0
EDMONTON VILLENEUVE A,53.668,-113.856,AB,1.0,2,NA,13.5,2,-11.0,1,,,NA,10.4,1,NA,,3,,,NA,492.4,0.0,3012229,1456815600.0
EDMONTON STONY PLAIN,53.548,-114.108,AB,1.7,0,4.4,13.2,0,-8.8,0,15.6,0,78.0,16.0,0,88.0,0.0,5,,,NA,503.8,0.0,301222F,1456815600.0
ELK ISLAND NAT PARK,53.683,-112.868,AB,0.7,0,5.8,12.6,0,-14.5,0,,,NA,23.3,0,108.0,,5,,,NA,536.7,0.0,3012275,1456815600.0
FABYAN,52.967,-111.000,AB,-1.0,0,4.4,13.5,0,-19.0,0,14.8,0,93.0,25.8,0,147.0,,5,,,NA,589.4,0.0,3012515,1456815600.0
FERINTOSH AGCM,52.744,-112.858,AB,0.8,6,NA,15.2,2,-11.0,6,,,NA,9.0,8,NA,,3,,,NA,430.4,0.0,3012590,1456815600.0
FORESTBURG PLANT SITE,52.467,-112.120,AB,1.7,0,3.6,16.0,0,-12.0,0,13.8,0,101.0,19.6,0,125.0,0.0,4,,,NA,505.8,0.0,3012652,1456815600.0
FORESTBURG AGCM,52.548,-112.123,AB,1.3,3,NA,16.0,2,-9.9,1,,,NA,17.8,3,NA,,4,,,NA,467.8,0.0,3012653,1456815600.0
FORT SASKATCHEWAN,53.717,-113.183,AB,2.6,23,6.2,12.0,23,-6.0,23,4.0,23,NA,4.0,23,NA,,1,,,NA,123.4,0.0,3012710,1456815600.0
GILT EDGE NORTH AGCM,53.071,-110.621,AB,-0.1,6,NA,11.8,5,-12.6,1,,,NA,17.7,6,NA,,7,,,NA,452.5,0.0,3012790,1456815600.0
GLENEVIS AGCM,53.833,-114.539,AB,1.6,3,NA,12.8,1,-9.6,2,,,NA,,,NA,,,,,NA,459.5,0.0,3012818,1456815600.0
HALKIRK AGCM,52.116,-112.164,AB,1.0,0,NA,15.0,0,-11.3,0,,,NA,7.4,13,NA,,2,,,NA,528.0,0.0,3012999,1456815600.0
HEMARUKA AGCM,51.780,-111.212,AB,0.6,4,NA,15.5,2,-10.7,2,,,NA,12.2,4,NA,,4,,,NA,470.1,0.0,3013140,1456815600.0
HOLDEN AGDM,53.185,-112.246,AB,0.1,7,NA,13.0,5,-11.0,4,,,NA,15.6,7,NA,,4,,,NA,430.0,0.0,3013340,1456815600.0
HUGHENDEN AGCM,52.578,-110.784,AB,0.5,3,NA,15.7,1,-12.4,2,,,NA,22.1,4,NA,,7,,,NA,489.9,0.0,3013362,1456815600.0
KILLAM AGDM,52.848,-111.872,AB,1.2,1,NA,15.6,0,-11.7,1,,,NA,30.9,1,NA,,10,,,NA,503.1,0.0,3013640,1456815600.0
KESSLER AGCM,52.290,-111.113,AB,0.3,15,NA,15.9,9,-15.4,8,,,NA,7.5,14,NA,,2,,,NA,283.6,0.0,3013644,1456815600.0
KITSCOTY AGCM,53.353,-110.416,AB,-1.8,2,NA,9.0,1,-14.9,1,,,NA,37.0,2,NA,,14,,,NA,574.0,0.0,3013660,1456815600.0
LEGAL AGCM,54.003,-113.474,AB,0.5,7,NA,11.9,3,-9.3,4,,,NA,26.4,7,NA,,6,,,NA,419.9,0.0,3013790,1456815600.0
LINDBERGH AGDM,53.943,-110.579,AB,-2.5,7,NA,9.8,4,-19.4,3,,,NA,24.1,7,NA,,7,,,NA,492.1,0.0,3013921,1456815600.0
LLOYDMINSTER,53.309,-110.073,AB,-2.3,3,NA,8.7,3,-14.7,3,,,NA,1.5,9,NA,,1,,,NA,569.2,0.0,3013959,1456815600.0
LLOYDMINSTER A,53.309,-110.073,AB,-2.3,1,3.4,8.5,1,-14.7,1,31.0,1,NA,31.8,1,NA,5.0,8,,,NA,607.5,0.0,3013961,1456815600.0
HOLDEN SOUTH,53.083,-112.267,AB,,,NA,,,,,16.2,0,96.0,16.6,0,92.0,0.0,4,,,NA,,,3013C44,1456815600.0
MANNVILLE AGCM,53.456,-111.255,AB,-1.0,0,NA,11.2,0,-12.6,0,,,NA,29.3,0,NA,,8,,,NA,588.9,0.0,3014195,1456815600.0
MONITOR,52.017,-110.550,AB,,,NA,,,,,18.4,0,129.0,22.2,0,131.0,0.0,6,,,NA,,,3014600,1456815600.0
MUNDARE AGDM,53.567,-112.300,AB,0.2,14,NA,12.1,12,-8.0,8,,,NA,20.1,15,NA,,4,,,NA,302.7,0.0,3014665,1456815600.0
MYRNAM AGCM,53.720,-111.114,AB,-1.9,4,NA,11.1,3,-16.8,2,,,NA,19.9,4,NA,,8,,,NA,537.0,0.0,3014690,1456815600.0
NEW SEREPTA AGCM,53.262,-113.165,AB,1.0,5,NA,14.6,3,-11.5,3,,,NA,10.9,5,NA,,2,,,NA,443.0,0.0,3014795,1456815600.0
OLIVER AGDM,53.650,-113.350,AB,1.1,3,NA,13.0,1,-10.5,2,,,NA,,,NA,,,,,NA,474.4,0.0,3014921,1456815600.0
RADWAY AGCM,53.995,-112.879,AB,-0.2,0,NA,12.4,0,-12.0,0,,,NA,,,NA,,,,,NA,562.8,0.0,3015346,1456815600.0
RANFURLY AUTO,53.425,-111.726,AB,0.1,0,NA,12.4,0,-12.8,0,,,NA,24.0,0,NA,,7,,,NA,556.2,0.0,3015401,1456815600.0
RIBSTONE SOUTH AGCM,52.587,-110.343,AB,-0.5,11,NA,16.6,9,-12.0,5,,,NA,17.4,11,NA,,3,,,NA,369.3,0.0,3015480,1456815600.0
RIVERCOURSE AGCM,53.019,-110.102,AB,-1.8,1,NA,9.9,0,-14.6,1,,,NA,20.5,2,NA,,6,,,NA,593.9,0.0,3015501,1456815600.0
ROCKY MTN HOUSE (AUT),52.421,-114.912,AB,0.7,3,NA,13.7,3,-17.9,3,,,NA,13.9,3,NA,,4,,,NA,484.1,0.0,3015523,1456815600.0
ROSALIND AGCM,52.780,-112.428,AB,1.5,0,NA,16.5,0,-10.9,0,,,NA,15.5,0,NA,,4,,,NA,512.2,0.0,3015600,1456815600.0
ST. LINA AGCM,54.282,-111.453,AB,-2.2,3,NA,10.1,1,-14.5,2,,,NA,24.1,3,NA,,6,,,NA,564.5,0.0,3015673,1456815600.0
ST. PAUL AGCM,54.011,-111.272,AB,-2.3,27,NA,5.0,23,-8.7,24,,,NA,5.1,28,NA,,1,,,NA,81.3,0.0,3015676,1456815600.0
SEDALIA AGCM,51.590,-110.755,AB,1.5,8,NA,20.3,5,-11.4,4,,,NA,6.7,10,NA,,3,,,NA,378.7,0.0,3015797,1456815600.0
SEDGEWICK TOWN,52.783,-111.700,AB,0.6,0,5.7,15.0,0,-13.0,0,10.0,0,72.0,18.0,0,126.0,0.0,4,,,NA,539.5,0.0,3015808,1456815600.0
SHONTS AGCM,53.333,-112.539,AB,0.8,2,NA,13.6,1,-10.7,1,,,NA,16.9,2,NA,,5,,,NA,499.4,0.0,3015900,1456815600.0
SMOKY LAKE AGDM,54.278,-112.499,AB,-0.7,0,NA,10.9,0,-11.7,0,,,NA,30.3,0,NA,,9,,,NA,579.3,0.0,3016022,1456815600.0
SPONDIN AGCM,51.816,-111.683,AB,-0.4,7,NA,12.9,7,-11.3,3,,,NA,10.8,7,NA,,3,,,NA,440.4,0.0,3016070,1456815600.0
STETTLER AGDM,52.347,-112.596,AB,1.6,1,NA,15.4,0,-9.1,1,,,NA,14.2,1,NA,,3,,,NA,492.1,0.0,3016124,1456815600.0
THORSBY AGCM,53.217,-113.895,AB,1.6,3,NA,13.0,2,-12.0,2,,,NA,8.1,4,NA,,3,,,NA,459.8,0.0,3016441,1456815600.0
TOMAHAWK AGDM,53.439,-114.718,AB,2.1,3,NA,12.5,1,-10.2,2,,,NA,21.5,3,NA,,9,,,NA,443.9,0.0,3016505,1456815600.0
TULLIBY LAKE AGCM,53.664,-110.081,AB,-2.3,6,NA,10.0,4,-17.9,2,,,NA,19.2,6,NA,,6,,,NA,507.6,0.0,3016593,1456815600.0
UNCAS,53.500,-113.033,AB,,,NA,,,,,15.4,0,NA,19.0,0,NA,0.0,5,,,NA,,,3016650,1456815600.0
TWO HILLS AGDM,53.625,-111.678,AB,-0.6,3,NA,11.3,1,-11.4,2,,,NA,16.9,3,NA,,7,,,NA,519.6,0.0,3016655,1456815600.0
VERMILION AGDM,53.344,-110.882,AB,-0.7,4,NA,11.6,2,-14.5,2,,,NA,24.3,6,NA,,7,,,NA,505.0,0.0,3016802,1456815600.0
VIKING AGCM,53.182,-111.732,AB,0.5,4,NA,12.9,2,-8.4,3,,,NA,18.9,5,NA,,7,,,NA,473.5,0.0,3016841,1456815600.0
VIKING NORTH 3,53.283,-111.767,AB,-0.3,2,NA,13.0,1,-15.0,1,53.9,1,NA,55.9,1,NA,0.0,6,,,NA,530.1,0.0,3016845,1456815600.0
VILNA AGCM,54.130,-111.921,AB,-1.5,3,NA,9.6,2,-13.5,1,,,NA,18.9,3,NA,,5,,,NA,546.5,0.0,3016852,1456815600.0
VIOLET GROVE CS,53.144,-115.126,AB,1.8,0,NA,13.8,0,-9.4,0,,,NA,25.3,0,NA,,4,,,NA,501.6,0.0,3016860,1456815600.0
VEGREVILLE,53.505,-112.098,AB,0.8,0,5.9,13.6,0,-13.1,0,,,NA,19.4,0,122.0,,5,,,NA,532.8,0.0,3016GF0,1456815600.0
WETASKIWIN AGCM,52.980,-113.444,AB,1.5,5,NA,13.9,4,-11.2,2,,,NA,9.5,8,NA,,3,,,NA,430.1,0.0,3017282,1456815600.0
EDMONTON STONY PLAIN CS,53.547,-114.108,AB,1.7,1,NA,13.2,1,-9.2,0,,,NA,15.0,1,NA,,4,,,NA,488.4,0.0,301A001,1456815600.0
ESTHER 1,51.670,-110.206,AB,1.5,0,NA,18.2,0,-12.3,0,,,NA,7.6,0,NA,,3,,,NA,512.8,0.0,301B460,1456815600.0
UNIVERSITY OF ALBERTA METABOLIC CENTRE,53.517,-113.533,AB,2.6,2,6.6,15.0,1,-13.0,1,12.0,1,NA,12.0,1,NA,0.0,3,,,NA,446.9,0.0,301FFNJ,1456815600.0
WAINWRIGHT CFB AIRFIELD 21,52.829,-111.096,AB,0.6,0,NA,16.4,0,-11.9,0,,,NA,20.3,0,NA,,4,,,NA,540.1,0.0,301S001,1456815600.0
ACADIA VALLEY,51.066,-110.317,AB,2.4,5,NA,18.0,2,-11.3,3,,,NA,9.3,6,NA,,3,,,NA,404.6,0.0,3020035,1456815600.0
ATLEE AGCM,50.810,-111.006,AB,2.4,6,NA,17.7,4,-10.4,3,,,NA,5.5,6,NA,,2,,,NA,389.9,0.0,3020405,1456815600.0
BEISEKER AGCM,51.379,-113.357,AB,2.5,0,NA,16.6,0,-10.1,0,,,NA,3.8,0,NA,,0,,,NA,479.4,0.0,3020610,1456815600.0
BIG VALLEY AGCM,51.998,-112.803,AB,1.3,10,NA,15.0,8,-12.3,3,,,NA,18.5,10,NA,,9,,,NA,351.1,0.0,3020679,1456815600.0
CRAIGMYLE AGCM,51.775,-112.252,AB,1.4,4,NA,15.9,2,-10.7,2,,,NA,11.6,5,NA,,3,,,NA,448.8,0.0,3021912,1456815600.0
CRAIGMYLE,51.767,-112.283,AB,2.2,6,5.1,15.5,6,-8.0,6,6.4,6,NA,6.4,6,NA,0.0,2,,,NA,395.9,0.0,3021940,1456815600.0
DRUMHELLER EAST,51.445,-112.677,AB,3.1,0,NA,18.4,0,-13.9,0,,,NA,1.3,27,NA,,1,,,NA,463.2,0.0,30221LG,1456815600.0
HESPERO AGCM,52.310,-114.486,AB,0.7,7,NA,14.4,6,-18.4,1,,,NA,11.4,8,NA,,2,,,NA,414.2,0.0,3023200,1456815600.0
HUSSAR AGDM,51.183,-112.500,AB,1.8,3,NA,15.8,2,-9.3,2,,,NA,7.6,3,NA,,4,,,NA,452.5,0.0,3023402,1456815600.0
LACOMBE CDA 2,52.449,-113.756,AB,1.3,0,NA,13.3,0,-13.6,0,,,NA,16.8,0,NA,1.0,4,,,NA,516.5,0.0,3023722,1456815600.0
LEEDALE AGDM,52.553,-114.473,AB,0.5,2,NA,12.8,0,-18.4,2,,,NA,20.4,2,NA,,4,,,NA,506.8,0.0,3023740,1456815600.0
LINDEN AGCM,51.619,-113.656,AB,2.2,0,NA,17.6,0,-12.0,0,,,NA,7.2,14,NA,,2,,,NA,489.2,0.0,3023850,1456815600.0
MORRIN AGDM,51.660,-112.675,AB,1.4,1,NA,15.4,0,-12.5,1,,,NA,26.9,2,NA,,11,,,NA,496.7,0.0,3024668,1456815600.0
OLDS AGDM,51.759,-114.085,AB,2.6,16,NA,15.5,15,-8.2,8,,,NA,3.7,16,NA,,1,,,NA,230.3,0.0,3024925,1456815600.0
OYEN AGDM,51.383,-110.350,AB,0.0,14,NA,13.3,11,-11.4,10,,,NA,3.9,16,NA,,1,,,NA,305.6,0.0,3024965,1456815600.0
POLLOCKVILLE AGDM,51.125,-111.705,AB,1.8,2,NA,17.9,1,-13.6,1,,,NA,6.4,4,NA,,4,,,NA,469.9,0.0,3025243,1456815600.0
PRENTISS,52.433,-113.600,AB,1.4,2,NA,12.8,0,-10.2,2,,,NA,17.7,2,NA,,5,,,NA,480.1,0.0,3025297,1456815600.0
RED DEER REGIONAL A,52.182,-113.894,AB,0.9,0,NA,13.0,0,-17.4,0,16.0,0,NA,14.8,0,NA,,3,,,NA,530.3,0.0,3025481,1456815600.0
SCHULER AGDM,50.307,-110.091,AB,3.3,1,NA,19.0,0,-12.1,1,,,NA,10.8,2,NA,,4,,,NA,439.7,0.0,3025768,1456815600.0
SIBBALD WESTGARD,51.425,-110.146,AB,2.0,2,NA,18.5,2,-12.0,2,10.0,2,NA,10.0,2,NA,0.0,3,,,NA,465.4,0.0,3025928,1456815600.0
THREE HILLS,51.768,-113.206,AB,1.2,9,NA,16.5,5,-11.6,4,,,NA,8.1,10,NA,,4,,,NA,370.1,0.0,3026479,1456815600.0
SUNDRE A,51.778,-114.683,AB,1.8,0,NA,15.5,0,-12.4,0,,,NA,11.1,0,NA,,4,,,NA,502.2,0.0,3026KNQ,1456815600.0
WIMBORNE AGCM,51.936,-113.591,AB,1.5,7,NA,15.1,5,-11.7,3,,,NA,8.5,9,NA,,3,,,NA,395.6,0.0,3027582,1456815600.0
AZURE,50.512,-114.013,AB,2.9,5,NA,15.9,2,-12.3,3,,,NA,22.4,6,NA,,5,,,NA,392.8,0.0,3030450,1456815600.0
BARNWELL AGDM,49.800,-112.300,AB,4.3,6,NA,18.1,4,-9.2,2,,,NA,8.4,6,NA,,3,,,NA,343.0,0.0,3030525,1456815600.0
BARONS AGCM,50.026,-113.224,AB,3.2,8,NA,18.2,6,-11.3,3,,,NA,21.2,10,NA,,4,,,NA,341.1,0.0,3030529,1456815600.0
BASSANO AGCM,50.893,-112.465,AB,2.8,2,NA,18.2,0,-11.4,2,,,NA,2.3,2,NA,,1,,,NA,439.7,0.0,3030540,1456815600.0
BLACK DIAMOND,50.707,-114.152,AB,2.3,4,NA,15.7,2,-13.2,2,,,NA,,,NA,,,,,NA,424.7,0.0,3030680,1456815600.0
BLOOD TRIBE AGDM,49.567,-113.050,AB,3.6,3,NA,17.1,2,-10.5,1,,,NA,17.6,6,NA,,6,,,NA,404.2,0.0,3030720,1456815600.0
BOW ISLAND,49.734,-111.450,AB,4.4,0,NA,20.5,0,-10.0,0,,,NA,6.7,0,NA,,4,,,NA,423.0,0.0,3030768,1456815600.0
BOW ISLAND IRRIGATION AGDM,49.867,-111.383,AB,4.2,0,NA,19.8,0,-9.2,0,,,NA,5.6,3,NA,,2,,,NA,427.0,0.0,3030772,1456815600.0
BROCKET AGDM,49.617,-113.817,AB,3.5,1,NA,17.4,0,-11.8,1,,,NA,3.5,24,NA,,2,,,NA,433.7,0.0,3030830,1456815600.0
BROOKS,50.555,-111.849,AB,3.4,0,NA,18.7,0,-10.9,0,,,NA,1.3,0,NA,,0,,,NA,451.2,0.0,3030QLP,1456815600.0
CALGARY INTL A,51.123,-114.013,AB,3.3,0,NA,17.0,0,-9.2,0,2.4,0,NA,4.6,0,NA,,2,,,NA,455.3,0.0,3031092,1456815600.0
CALGARY INT'L CS,51.109,-114.000,AB,2.9,0,NA,16.8,0,-9.6,0,,,NA,5.0,0,NA,,1,,,NA,467.7,0.0,3031094,1456815600.0
CARDSTON,49.201,-113.286,AB,3.8,0,NA,19.3,0,-8.0,0,,,NA,23.3,0,NA,,4,,,NA,441.5,0.0,3031322,1456815600.0
CARWAY,49.001,-113.376,AB,2.2,1,NA,16.3,0,-9.8,1,,,NA,34.4,1,NA,,6,,,NA,474.5,0.0,3031402,1456815600.0
CHAMPION AGDM,50.282,-113.350,AB,3.2,0,NA,17.3,0,-10.2,0,,,NA,17.5,5,NA,,4,,,NA,460.3,0.0,3031480,1456815600.0
CLARESHOLM,50.004,-113.639,AB,3.5,0,NA,19.2,0,-12.4,0,,,NA,16.0,0,NA,,4,,,NA,449.3,0.0,3031640,1456815600.0
COP UPPER,51.076,-114.222,AB,3.5,2,NA,15.6,1,-9.2,1,,,NA,2.4,3,NA,,1,,,NA,419.6,0.0,3031875,1456815600.0
ENCHANT AGDM,50.183,-112.433,AB,3.8,5,NA,18.2,4,-9.5,2,,,NA,4.3,7,NA,,1,,,NA,370.2,0.0,3032422,1456815600.0
ETZIKOM AGCM,49.553,-111.054,AB,3.4,3,NA,19.1,2,-14.6,1,,,NA,10.1,3,NA,,4,,,NA,408.0,0.0,3032450,1456815600.0
FINCASTLE AGDM,49.800,-112.033,AB,4.6,0,NA,18.8,0,-9.5,0,,,NA,4.1,0,NA,,2,,,NA,415.5,0.0,3032550,1456815600.0
FOREMOST AGDM,49.483,-111.486,AB,4.2,6,NA,19.4,3,-11.7,4,,,NA,8.1,7,NA,,2,,,NA,345.8,0.0,3032642,1456815600.0
FORT MACLEOD AGCM,49.786,-113.379,AB,3.6,0,NA,18.9,0,-10.0,0,,,NA,10.2,3,NA,,3,,,NA,445.0,0.0,3032683,1456815600.0
GLEICHEN AGCM,50.934,-112.941,AB,2.8,1,NA,17.7,1,-8.4,0,,,NA,3.6,22,NA,,1,,,NA,455.6,0.0,3032801,1456815600.0
GRASSY LAKE,49.874,-111.733,AB,4.4,4,NA,19.6,2,-9.1,2,,,NA,3.1,3,NA,,2,,,NA,368.1,0.0,3032927,1456815600.0
IRON SPRINGS AGDM,49.900,-112.733,AB,4.1,4,NA,17.9,3,-10.2,1,,,NA,8.3,4,NA,,2,,,NA,375.0,0.0,3033498,1456815600.0
IRVINE AGCM,49.989,-110.261,AB,4.4,2,NA,19.7,0,-11.0,2,,,NA,9.4,2,NA,,4,,,NA,395.7,0.0,3033550,1456815600.0
LETHBRIDGE,49.630,-112.799,AB,3.9,2,NA,17.5,2,-10.4,2,,,NA,21.3,2,NA,,4,,,NA,408.3,0.0,3033875,1456815600.0
LETHBRIDGE CDA,49.695,-112.768,AB,5.2,10,NA,19.5,10,-9.3,10,,,NA,8.8,9,NA,,1,,,NA,269.0,0.0,3033890,1456815600.0
LETHBRIDGE CDA 2,49.700,-112.783,AB,,,NA,,,,,0.0,14,NA,0.6,14,NA,,0,,,NA,,,3033892,1456815600.0
LETHBRIDGE DEMO FARM AGDM,49.683,-112.750,AB,4.5,4,NA,18.7,2,-11.4,2,,,NA,12.6,4,NA,,4,,,NA,364.7,0.0,3033897,1456815600.0
MEDICINE HAT,50.019,-110.721,AB,4.4,1,NA,21.3,1,-11.4,1,,,NA,2.0,1,NA,,1,,,NA,407.9,0.0,3034479,1456815600.0
MEDICINE HAT RCS,50.025,-110.717,AB,4.5,0,NA,20.9,0,-11.3,0,,,NA,2.5,0,NA,,0,,,NA,418.8,0.0,3034485,1456815600.0
MOSSLEIGH AGCM,50.673,-113.349,AB,2.7,4,NA,17.6,3,-11.6,2,,,NA,4.4,5,NA,,1,,,NA,411.9,0.0,3034577,1456815600.0
NIER AGDM,51.369,-114.099,AB,2.4,4,NA,16.7,1,-10.2,4,,,NA,10.5,6,NA,,4,,,NA,421.8,0.0,3034795,1456815600.0
PINCHER CREEK,49.521,-113.997,AB,3.3,2,NA,16.3,2,-8.1,2,,,NA,30.1,2,NA,,7,,,NA,425.7,0.0,3035198,1456815600.0
PINCHER CREEK CLIMATE,49.522,-114.005,AB,3.0,0,NA,16.3,0,-10.3,0,,,NA,31.0,0,NA,,8,,,NA,466.3,0.0,3035208,1456815600.0
QUEENSTOWN,50.606,-112.983,AB,2.9,0,4.1,18.0,0,-13.5,0,0.0,0,0.0,2.0,0,8.0,0.0,1,,,NA,467.0,0.0,3035340,1456815600.0
QUEENSTOWN,50.598,-112.803,AB,3.3,2,NA,17.2,0,-9.8,2,,,NA,9.6,2,NA,,2,,,NA,425.6,0.0,3035342,1456815600.0
RAYMOND AGDM,49.483,-112.683,AB,4.8,3,NA,20.5,2,-7.6,1,,,NA,18.0,4,NA,,4,,,NA,368.6,0.0,3035422,1456815600.0
ROLLING HILLS AGCM,50.265,-111.701,AB,3.6,6,NA,19.1,5,-12.3,1,,,NA,0.4,6,NA,,0,,,NA,361.0,0.0,3035530,1456815600.0
ROSEMARY AGDM,50.833,-112.050,AB,2.6,3,NA,19.1,2,-12.5,1,,,NA,3.5,7,NA,,1,,,NA,431.2,0.0,3035650,1456815600.0
SEVEN PERSONS AGDM,49.917,-110.917,AB,4.0,0,NA,20.2,0,-10.4,0,,,NA,6.7,1,NA,,4,,,NA,433.1,0.0,3035845,1456815600.0
STANDARD AGCM,51.228,-112.982,AB,3.3,3,NA,17.4,1,-7.9,2,,,NA,8.8,4,NA,,3,,,NA,412.5,0.0,3036086,1456815600.0
STAVELY AAFC,50.183,-113.883,AB,3.6,0,NA,15.2,0,-8.2,0,,,NA,23.1,0,NA,,6,,,NA,447.7,0.0,3036099,1456815600.0
STRATHMORE AGDM,51.033,-113.283,AB,3.0,0,NA,16.8,0,-8.2,0,,,NA,4.0,4,NA,,1,,,NA,464.8,0.0,3036205,1456815600.0
TABER,49.792,-112.124,AB,3.2,18,NA,18.5,13,-10.5,13,0.0,13,NA,5.0,13,NA,0.0,3,,,NA,192.9,0.0,3036360,1456815600.0
TRAVERS AGCM,50.304,-112.863,AB,4.1,7,NA,16.6,4,-10.8,3,,,NA,6.6,8,NA,,2,,,NA,334.6,0.0,3036500,1456815600.0
VAUXHALL CDA CS,50.050,-112.133,AB,3.9,0,NA,18.7,0,-9.7,0,,,NA,1.4,0,NA,,0,,,NA,436.5,0.0,3036682,1456815600.0
WILDCAT HILLS,51.269,-114.721,AB,1.7,0,NA,15.5,0,-14.5,0,6.2,0,NA,8.0,0,NA,0.0,5,,,NA,506.8,0.0,3037550,1456815600.0
WRENTHAM AGDM,49.500,-112.117,AB,4.1,6,NA,17.8,4,-9.5,4,,,NA,5.8,10,NA,,2,,,NA,346.9,0.0,3037675,1456815600.0
OKOTOKS,50.729,-113.961,AB,3.5,0,4.9,17.0,0,-11.5,0,3.2,0,12.0,10.8,0,38.0,0.0,3,,,NA,448.3,0.0,303M9JM,1456815600.0
PICTURE BUTTE WEST,49.871,-112.788,AB,4.3,11,NA,19.0,10,-10.5,11,1.4,10,NA,18.4,10,NA,0.0,3,,,NA,274.6,0.0,303N1G3,1456815600.0
DEL BONITA AGDM,49.050,-112.817,AB,2.4,1,NA,18.8,0,-10.9,1,,,NA,19.0,1,NA,,5,,,NA,467.4,0.0,3042045,1456815600.0
MANYBERRIES AGCM,49.364,-110.678,AB,2.9,6,NA,17.7,4,-15.5,3,,,NA,15.7,6,NA,,5,,,NA,378.1,0.0,3044203,1456815600.0
MASINASIN AGDM,49.137,-111.652,AB,4.1,1,NA,19.8,0,-12.1,1,,,NA,10.7,2,NA,,3,,,NA,418.2,0.0,3044232,1456815600.0
MILK RIVER,49.133,-112.050,AB,3.3,0,NA,20.3,0,-10.0,0,,,NA,12.6,0,NA,,4,,,NA,456.3,0.0,3044533,1456815600.0
ONEFOUR CDA,49.117,-110.467,AB,3.3,0,NA,20.5,0,-13.4,0,,,NA,8.4,0,NA,1.0,2,,,NA,454.2,0.0,3044923,1456815600.0
PAKOWKI LAKE AGCM,49.225,-111.126,AB,3.6,3,NA,19.1,0,-11.6,3,,,NA,13.7,3,NA,,5,,,NA,402.0,0.0,3045000,1456815600.0
BANFF CS,51.193,-115.552,AB,1.6,1,NA,14.3,1,-12.1,0,,,NA,7.7,1,NA,0.0,2,,,NA,490.9,0.0,3050519,1456815600.0
BEAVER MINES,49.468,-114.175,AB,2.9,1,NA,14.9,1,-9.4,1,,,NA,33.2,1,NA,2.0,9,,,NA,453.0,0.0,3050602,1456815600.0
BOW VALLEY,51.083,-115.067,AB,3.0,0,NA,14.6,0,-14.7,0,,,NA,4.3,1,NA,,1,,,NA,466.4,0.0,3050778,1456815600.0
CROWSNEST,49.628,-114.482,AB,2.1,0,NA,15.0,0,-11.3,0,,,NA,0.8,28,NA,,0,,,NA,493.7,0.0,3051R4R,1456815600.0
JASPER WARDEN,52.926,-118.030,AB,2.7,0,NA,18.7,0,-11.2,0,,,NA,16.5,0,NA,,5,,,NA,474.8,0.0,3053536,1456815600.0
KANANASKIS,51.028,-115.035,AB,2.9,0,4.5,18.5,0,-15.0,0,5.4,0,13.0,9.8,0,24.0,0.0,4,,,NA,467.6,0.0,3053600,1456815600.0
KANANASKIS POCATERRA,50.713,-115.120,AB,0.4,27,4.3,10.0,21,-16.0,21,0.0,21,NA,0.0,21,NA,,0,,,NA,70.5,0.0,3053604,1456815600.0
NORDEGG CS,52.492,-116.040,AB,1.3,0,NA,15.1,0,-18.6,0,,,NA,21.6,0,NA,2.0,10,,,NA,517.3,0.0,3054843,1456815600.0
PEKISKO,50.368,-114.416,AB,1.5,1,NA,14.3,0,-13.2,1,,,NA,17.8,1,NA,2.0,5,,,NA,494.8,0.0,3055119,1456815600.0
WATERTON PARK GATE,49.131,-113.809,AB,3.4,0,NA,16.0,0,-9.8,0,,,NA,61.0,0,NA,,7,,,NA,452.4,0.0,3056214,1456815600.0
NAKISKA RIDGETOP,50.943,-115.190,AB,-4.6,5,NA,5.0,5,-14.2,3,,,NA,,,NA,,,,,NA,588.4,0.0,305MGFF,1456815600.0
ATHABASCA AGCM,54.635,-113.382,AB,0.2,0,NA,12.2,0,-11.0,0,,,NA,27.5,0,NA,,9,,,NA,551.6,0.0,3060330,1456815600.0
ATMORE AGDM,54.782,-112.825,AB,-1.1,7,NA,10.2,4,-13.3,4,,,NA,20.8,7,NA,16.0,7,,,NA,458.1,0.0,3060406,1456815600.0
BARRHEAD CS,54.095,-114.448,AB,0.1,0,NA,12.6,0,-12.6,0,,,NA,22.2,0,NA,,7,,,NA,556.0,0.0,3060535,1456815600.0
BRULE BLACK CAT,53.350,-117.867,AB,-1.3,30,1.3,5.0,30,-7.5,29,3.4,30,NA,3.4,30,NA,,1,,,NA,19.3,0.0,3060903,1456815600.0
CAMPSIE AUTO,54.131,-114.678,AB,-0.2,0,NA,13.5,0,-15.4,0,,,NA,18.4,0,NA,,5,,,NA,564.4,0.0,3061201,1456815600.0
DAPP AGDM,54.317,-113.950,AB,-2.0,6,NA,9.7,5,-16.9,1,,,NA,19.7,5,NA,,6,,,NA,499.9,0.0,3061975,1456815600.0
EDSON,53.579,-116.465,AB,0.7,1,NA,15.8,1,-15.3,1,,,NA,23.7,1,NA,,9,,,NA,517.6,0.0,3062239,1456815600.0
EDSON CLIMATE,53.580,-116.453,AB,0.9,0,NA,16.4,0,-16.9,0,,,NA,26.5,0,NA,0.0,5,,,NA,530.3,0.0,3062246,1456815600.0
ENTWISTLE,53.600,-114.983,AB,2.3,4,5.1,14.0,4,-13.0,4,9.0,4,NA,11.8,4,NA,0.0,5,,,NA,423.0,0.0,3062451,1456815600.0
EVANSBURG2 AGCM,53.614,-115.062,AB,0.6,0,NA,12.6,0,-17.7,0,,,NA,20.1,0,NA,,5,,,NA,540.0,0.0,3062476,1456815600.0
FORT ASSINIBOINE AGCM,54.410,-114.769,AB,0.5,9,NA,13.0,7,-11.9,7,,,NA,28.8,9,NA,,8,,,NA,384.1,0.0,3062660,1456815600.0
FORT MCMURRAY CS,56.651,-111.213,AB,-3.5,0,NA,12.1,0,-20.8,0,,,NA,22.0,0,NA,,7,,,NA,668.0,0.0,3062696,1456815600.0
FORT MCMURRAY A,56.653,-111.223,AB,-3.3,1,NA,12.0,1,-20.5,1,,,NA,10.2,1,NA,,5,,,NA,640.1,0.0,3062697,1456815600.0
HENDRICKSON CREEK,53.795,-118.447,AB,-1.8,5,NA,13.6,4,-22.3,4,,,NA,23.4,5,NA,56.0,8,,,NA,515.8,0.0,3063135,1456815600.0
HIGH PRAIRIE AGDM,55.396,-116.479,AB,-0.9,0,NA,12.3,0,-15.3,0,,,NA,15.9,0,NA,,7,,,NA,585.2,0.0,3063165,1456815600.0
ISLAND LAKE SOUTH,54.821,-113.543,AB,-0.8,0,NA,11.0,0,-13.0,0,,,NA,28.6,0,NA,0.0,9,,,NA,582.0,0.0,3063600,1456815600.0
LAC LA BICHE CLIMATE,54.769,-112.024,AB,-0.9,0,NA,11.6,0,-14.6,0,,,NA,28.7,0,NA,0.0,9,,,NA,585.3,0.0,3063686,1456815600.0
MILDRED LAKE,57.041,-111.559,AB,-3.6,0,NA,12.5,0,-16.8,0,,,NA,24.8,0,NA,,8,,,NA,669.7,0.0,3064528,1456815600.0
RICH LAKE AGDM,54.500,-111.700,AB,-2.7,0,NA,9.1,0,-16.5,0,,,NA,25.1,0,NA,,7,,,NA,641.8,0.0,3065475,1456815600.0
SLAVE LAKE,55.293,-114.777,AB,-0.5,1,NA,11.3,1,-14.3,1,,,NA,19.8,1,NA,,8,,,NA,555.8,0.0,3065995,1456815600.0
SLAVE LAKE RCS,55.293,-114.777,AB,-0.7,0,NA,11.1,0,-15.1,0,,,NA,24.4,0,NA,1.0,7,,,NA,578.9,0.0,3065997,1456815600.0
TAWATINAW AGCM,54.300,-113.520,AB,-0.7,4,NA,11.3,1,-11.3,3,,,NA,25.8,5,NA,,7,,,NA,505.5,0.0,3066367,1456815600.0
WHITECOURT,54.140,-115.784,AB,2.5,6,NA,13.5,6,-8.6,6,,,NA,,,NA,,,,,NA,388.1,0.0,3067371,1456815600.0
WHITECOURT A,54.144,-115.787,AB,0.7,0,NA,12.4,0,-16.0,0,,,NA,,,NA,,,,,NA,536.3,0.0,3067373,1456815600.0
WILLOW CREEK 1,53.386,-118.348,AB,-0.5,1,NA,15.5,0,-17.5,1,,,NA,13.8,1,NA,27.0,4,,,NA,555.4,0.0,306GE70,1456815600.0
BEAVERLODGE RCS,55.197,-119.396,AB,-0.4,0,NA,15.2,0,-14.9,0,,,NA,40.9,0,NA,,7,,,NA,571.5,0.0,3070600,1456815600.0
BROWNVALE AGCM,56.118,-117.886,AB,-2.1,8,NA,13.0,4,-17.9,5,,,NA,17.8,10,NA,,3,,,NA,461.9,0.0,3070800,1456815600.0
EAGLESHAM AGCM,55.808,-117.887,AB,-1.3,0,NA,14.2,0,-16.3,0,,,NA,19.2,0,NA,,6,,,NA,597.3,0.0,3072151,1456815600.0
EGG ISLAND,58.981,-110.439,AB,-11.4,15,NA,1.2,11,-28.0,12,,,NA,,,NA,,,,,NA,471.1,0.0,3072246,1456815600.0
FAIRVIEW AGDM,56.081,-118.439,AB,-1.9,3,NA,11.4,1,-16.1,3,,,NA,17.1,4,NA,,8,,,NA,557.5,0.0,3072525,1456815600.0
FORT CHIPEWYAN,58.767,-111.117,AB,-8.9,0,NA,9.3,0,-28.3,0,,,NA,0.0,0,NA,,0,,,NA,833.2,0.0,3072655,1456815600.0
FORT CHIPEWYAN RCS,58.767,-111.117,AB,-9.1,0,NA,8.7,0,-28.4,0,,,NA,,,NA,23.0,,,,NA,839.9,0.0,3072659,1456815600.0
FORT VERMILION,58.382,-116.040,AB,-5.6,0,NA,10.4,0,-23.8,0,,,NA,14.9,0,NA,36.0,4,,,NA,732.4,0.0,3072723,1456815600.0
GRANDE PRAIRIE A,55.180,-118.885,AB,-1.4,0,NA,12.3,0,-16.3,0,36.8,1,NA,32.8,1,NA,12.0,9,,,NA,602.5,0.0,3072921,1456815600.0
HAWK HILLS AGCM,57.265,-117.298,AB,-4.6,0,NA,13.2,0,-19.0,0,,,NA,15.0,0,NA,,5,,,NA,702.0,0.0,3073071,1456815600.0
HIGH LEVEL,58.622,-117.165,AB,-5.6,0,NA,11.6,0,-23.7,0,,,NA,16.1,0,NA,,2,,,NA,732.7,0.0,3073140,1456815600.0
HIGH LEVEL A,58.621,-117.165,AB,-6.0,2,3.4,12.0,2,-24.1,2,32.8,2,NA,19.0,2,NA,41.0,6,,,NA,697.3,0.0,3073146,1456815600.0
JEAN COTE AGCM,55.913,-117.120,AB,-1.0,0,NA,11.7,0,-11.7,0,,,NA,18.7,0,NA,,7,,,NA,587.5,0.0,3073535,1456815600.0
LA CRETE AGCM,58.172,-116.343,AB,-5.9,0,NA,11.2,0,-21.4,0,,,NA,14.3,0,NA,,4,,,NA,742.2,0.0,3073730,1456815600.0
LA GLACE AGCM,55.422,-119.255,AB,-1.2,0,NA,14.5,0,-15.9,0,,,NA,25.6,0,NA,,7,,,NA,594.0,0.0,3073740,1456815600.0
MANNING,56.951,-117.644,AB,-3.6,25,3.8,12.0,25,-13.0,25,18.0,25,NA,18.0,25,NA,,4,,,NA,129.7,0.0,3074182,1456815600.0
MANNING AGDM,56.974,-117.451,AB,-3.3,10,NA,11.0,9,-18.9,4,,,NA,,,NA,,,,,NA,447.5,0.0,3074190,1456815600.0
CLEARDALE AGDM,56.314,-119.745,AB,-1.1,6,NA,15.7,2,-17.6,5,,,NA,20.0,6,NA,,7,,,NA,477.9,0.0,3074935,1456815600.0
PEACE RIVER A,56.227,-117.448,AB,-2.3,0,NA,13.8,0,-18.4,0,21.2,0,NA,20.6,0,NA,5.0,7,,,NA,628.1,0.0,3075041,1456815600.0
PEORIA AGDM,55.621,-118.293,AB,-1.3,4,NA,15.5,1,-14.4,3,,,NA,25.8,4,NA,,7,,,NA,522.3,0.0,3075160,1456815600.0
RED EARTH,56.552,-115.278,AB,-1.8,1,NA,12.4,1,-15.8,1,,,NA,36.8,1,NA,10.0,13,,,NA,595.0,0.0,3075488,1456815600.0
RYCROFT AGCM,55.777,-118.668,AB,-1.2,6,NA,15.4,4,-16.4,2,,,NA,14.0,6,NA,,5,,,NA,480.4,0.0,3075601,1456815600.0
SAVANNA AGCM,56.076,-119.345,AB,-1.6,5,NA,12.9,3,-14.3,2,,,NA,21.5,6,NA,,8,,,NA,509.1,0.0,3075770,1456815600.0
SIMONETTE,54.425,-117.741,AB,1.5,13,4.7,17.0,7,-10.0,8,20.0,7,NA,20.0,7,NA,0.0,5,,,NA,296.5,0.0,3075937,1456815600.0
SPIRIT RIVER AUTO STATION,55.695,-119.230,AB,-0.3,3,NA,15.2,1,-13.1,2,,,NA,44.2,3,NA,30.0,11,,,NA,511.2,0.0,3076069,1456815600.0
TEEPEE CREEK AGCM,55.352,-118.408,AB,-1.6,7,NA,15.3,6,-14.7,3,,,NA,14.0,7,NA,,4,,,NA,469.6,0.0,3076366,1456815600.0
VALLEYVIEW AGDM,55.098,-117.199,AB,0.3,13,NA,16.2,9,-7.8,5,,,NA,17.9,13,NA,,6,,,NA,318.2,0.0,3076680,1456815600.0
GARDEN RIVER,58.711,-113.866,AB,-6.0,0,NA,14.7,0,-24.5,0,,,NA,,,NA,,,,,NA,744.4,0.0,307KPFP,1456815600.0
COLD LAKE A,54.417,-110.283,AB,-1.6,0,3.2,11.6,0,-14.9,0,21.6,0,122.0,18.0,0,103.0,0.0,6,,,NA,607.9,0.0,3081680,1456815600.0
DUPRE AGCM,54.367,-110.868,AB,-2.5,0,NA,10.1,0,-18.1,0,,,NA,17.5,0,NA,,5,,,NA,634.5,0.0,3081690,1456815600.0
ABEE AGDM,54.283,-112.967,AB,5.8,6,NA,24.1,4,-8.5,2,,,NA,26.9,5,NA,,8,,,NA,292.9,0.0,3010010,1459490400.0
ALBERT HALL AGCM,53.113,-111.181,AB,6.3,0,NA,25.9,0,-7.2,0,,,NA,26.5,0,NA,,5,,,NA,351.4,0.0,3010060,1459490400.0
ALLIANCE AGCM,52.315,-111.779,AB,7.2,0,NA,27.4,0,-9.0,0,,,NA,26.4,1,NA,,4,,,NA,324.3,0.0,3010162,1459490400.0
ANDREW,54.017,-112.233,AB,7.2,7,2.5,25.0,7,-6.0,7,3.8,7,NA,16.8,7,NA,,4,,,NA,249.2,0.0,3010234,1459490400.0
ANDREW AGDM,53.917,-112.279,AB,6.3,4,NA,24.1,4,-6.5,1,,,NA,20.9,4,NA,,5,,,NA,303.0,0.0,3010237,1459490400.0
BELLSHILL AGCM,52.582,-111.465,AB,7.3,4,NA,27.2,4,-7.0,0,,,NA,19.8,5,NA,,2,,,NA,277.7,0.0,3010650,1459490400.0
BODO AGDM,52.124,-110.101,AB,7.4,7,NA,26.7,6,-7.6,2,,,NA,4.3,8,NA,,1,,,NA,243.4,0.0,3010730,1459490400.0
BRETON PLOTS,53.089,-114.441,AB,7.8,0,NA,24.6,0,-6.9,0,,,NA,3.7,0,NA,,1,,,NA,307.4,0.0,3010816,1459490400.0
BUSBY AGCM,53.931,-113.922,AB,7.3,0,NA,25.3,0,-5.6,0,,,NA,12.6,0,NA,,3,,,NA,320.4,0.0,3010979,1459490400.0
CADOGAN AGCM,52.334,-110.510,AB,6.9,3,NA,27.3,1,-8.2,2,,,NA,20.1,1,NA,,5,,,NA,300.1,0.0,3010992,1459490400.0
CAMROSE,53.050,-112.817,AB,7.0,0,2.5,25.0,0,-9.0,0,,,NA,7.4,0,26.0,,3,,,NA,331.0,0.0,3011240,1459490400.0
CAMROSE 2,52.950,-112.800,AB,8.6,15,NA,27.0,8,-7.0,9,0.0,6,NA,1.8,6,NA,0.0,1,,,NA,141.0,0.0,3011241,1459490400.0
CARNWOOD,53.234,-114.654,AB,7.8,0,NA,25.5,0,-8.5,0,0.0,0,NA,6.0,0,NA,0.0,4,,,NA,304.6,0.0,3011350,1459490400.0
CONSORT AGDM,51.937,-110.713,AB,6.3,3,NA,21.3,3,-8.7,0,,,NA,26.5,5,NA,,3,,,NA,314.7,0.0,3011815,1459490400.0
CORONATION CLIMATE,52.074,-111.449,AB,6.3,0,NA,25.5,0,-8.1,0,,,NA,36.3,0,NA,,4,,,NA,351.9,0.0,3011887,1459490400.0
CRESTOMERE AGCM,52.733,-113.903,AB,9.1,14,NA,25.2,12,-5.9,10,,,NA,0.5,14,NA,,0,,,NA,143.0,0.0,3011892,1459490400.0
DELBURNE AGCM,52.183,-113.176,AB,7.9,0,NA,26.8,0,-6.3,0,,,NA,17.7,1,NA,,2,,,NA,304.2,0.0,3012050,1459490400.0
DEWBERRY AGCM,53.659,-110.588,AB,5.7,3,NA,26.0,3,-7.2,0,,,NA,16.6,3,NA,,4,,,NA,333.3,0.0,3012073,1459490400.0
DONALDA SOUTH,52.517,-112.351,AB,7.5,0,NA,28.5,0,-10.0,0,4.1,0,NA,20.3,0,NA,0.0,4,,,NA,314.2,0.0,3012095,1459490400.0
EDGERTON AGCM,52.778,-110.433,AB,6.0,11,NA,22.4,9,-8.3,4,,,NA,16.5,13,NA,,4,,,NA,227.7,0.0,3012192,1459490400.0
EDMONTON INTERNATIONAL CS,53.307,-113.606,AB,7.2,0,NA,26.0,0,-10.6,0,,,NA,0.9,25,NA,,0,,,NA,324.4,0.0,3012206,1459490400.0
EDMONTON BLATCHFORD,53.573,-113.517,AB,8.8,0,NA,26.2,0,-3.7,0,,,NA,9.9,0,NA,,3,,,NA,275.4,0.0,3012209,1459490400.0
EDMONTON NAMAO AWOS A,53.667,-113.467,AB,7.6,0,NA,25.7,0,-7.1,0,,,NA,15.0,0,NA,,3,,,NA,312.4,0.0,3012212,1459490400.0
EDMONTON INTL A,53.310,-113.579,AB,7.3,0,NA,26.3,0,-10.4,0,4.8,1,NA,8.8,1,NA,,2,,,NA,322.5,0.0,3012216,1459490400.0
EDMONTON VILLENEUVE A,53.668,-113.856,AB,7.7,1,NA,25.9,1,-8.3,1,,,NA,1.6,1,NA,,0,,,NA,300.0,0.0,3012229,1459490400.0
EDMONTON STONY PLAIN,53.548,-114.108,AB,8.4,0,3.5,25.5,0,-4.6,0,2.0,0,15.0,6.2,0,22.0,0.0,3,,,NA,286.6,0.0,301222F,1459490400.0
ELK ISLAND NAT PARK,53.683,-112.868,AB,7.2,0,3.0,24.7,0,-4.8,0,,,NA,14.0,0,53.0,,7,,,NA,324.4,0.0,3012275,1459490400.0
FABYAN,52.967,-111.000,AB,5.8,0,1.8,25.5,0,-8.5,0,3.0,0,30.0,29.2,0,108.0,0.0,5,,,NA,365.2,0.0,3012515,1459490400.0
FERINTOSH AGCM,52.744,-112.858,AB,7.1,3,NA,23.8,2,-6.6,1,,,NA,9.9,3,NA,,3,,,NA,294.4,0.0,3012590,1459490400.0
FORESTBURG PLANT SITE,52.467,-112.120,AB,8.2,0,2.4,27.0,0,-6.0,0,1.2,0,20.0,19.2,0,70.0,0.0,5,,,NA,294.0,0.0,3012652,1459490400.0
FORESTBURG AGCM,52.548,-112.123,AB,7.2,0,NA,27.3,0,-9.2,0,,,NA,16.5,1,NA,,6,,,NA,324.3,0.0,3012653,1459490400.0
FORT SASKATCHEWAN,53.717,-113.183,AB,7.5,20,2.6,24.0,20,-5.0,20,0.0,21,NA,4.8,21,NA,,1,,,NA,104.7,0.0,3012710,1459490400.0
GILT EDGE NORTH AGCM,53.071,-110.621,AB,7.2,10,NA,25.2,8,-6.6,3,,,NA,16.8,11,NA,,4,,,NA,216.9,0.0,3012790,1459490400.0
GLENEVIS AGCM,53.833,-114.539,AB,8.4,3,NA,25.4,2,-5.0,1,,,NA,,,NA,,,,,NA,258.9,0.0,3012818,1459490400.0
HALKIRK AGCM,52.116,-112.164,AB,6.8,0,NA,26.7,0,-7.7,0,,,NA,19.3,14,NA,,4,,,NA,335.3,0.0,3012999,1459490400.0
HEMARUKA AGCM,51.780,-111.212,AB,6.9,1,NA,25.9,1,-7.7,0,,,NA,36.2,1,NA,,5,,,NA,320.9,0.0,3013140,1459490400.0
HOLDEN AGDM,53.185,-112.246,AB,7.0,5,NA,24.7,3,-7.2,3,,,NA,7.4,8,NA,,2,,,NA,274.5,0.0,3013340,1459490400.0
HUGHENDEN AGCM,52.578,-110.784,AB,6.9,4,NA,26.7,2,-3.9,3,,,NA,32.4,7,NA,,3,,,NA,288.1,0.0,3013362,1459490400.0
KILLAM AGDM,52.848,-111.872,AB,7.0,6,NA,26.7,6,-7.2,1,,,NA,35.5,6,NA,,12,,,NA,265.1,0.0,3013640,1459490400.0
KESSLER AGCM,52.290,-111.113,AB,8.0,12,NA,27.1,6,-6.8,9,,,NA,19.9,12,NA,,3,,,NA,179.8,0.0,3013644,1459490400.0
KITSCOTY AGCM,53.353,-110.416,AB,6.3,4,NA,25.4,3,-6.5,2,,,NA,13.8,5,NA,,4,,,NA,305.5,0.0,3013660,1459490400.0
LEGAL AGCM,54.003,-113.474,AB,6.5,6,NA,25.3,4,-5.9,2,,,NA,6.3,6,NA,,3,,,NA,275.7,0.0,3013790,1459490400.0
LINDBERGH AGDM,53.943,-110.579,AB,4.8,4,NA,24.7,1,-6.5,3,,,NA,16.3,5,NA,,5,,,NA,344.4,0.0,3013921,1459490400.0
LLOYDMINSTER,53.309,-110.073,AB,5.5,1,NA,25.7,1,-7.3,1,,,NA,0.0,7,NA,,0,,,NA,361.5,0.0,3013959,1459490400.0
LLOYDMINSTER A,53.309,-110.073,AB,6.1,4,2.2,26.0,4,-7.5,4,2.0,4,NA,9.4,4,NA,0.0,3,,,NA,308.6,0.0,3013961,1459490400.0
HOLDEN SOUTH,53.083,-112.267,AB,,,NA,,,,,4.8,3,NA,14.2,3,NA,0.0,6,,,NA,,,3013C44,1459490400.0
MANNVILLE AGCM,53.456,-111.255,AB,6.2,0,NA,25.6,0,-6.7,0,,,NA,27.3,0,NA,,6,,,NA,354.1,0.0,3014195,1459490400.0
MONITOR,52.017,-110.550,AB,,,NA,,,,,18.4,0,273.0,27.2,0,119.0,0.0,4,,,NA,,,3014600,1459490400.0
MUNDARE AGDM,53.567,-112.300,AB,7.3,8,NA,25.6,6,-6.7,3,,,NA,9.1,8,NA,,3,,,NA,235.1,0.0,3014665,1459490400.0
MYRNAM AGCM,53.720,-111.114,AB,5.4,2,NA,24.2,2,-6.6,1,,,NA,29.2,3,NA,,6,,,NA,351.7,0.0,3014690,1459490400.0
NEW SEREPTA AGCM,53.262,-113.165,AB,7.2,2,NA,24.6,2,-7.2,0,,,NA,10.3,2,NA,,3,,,NA,301.2,0.0,3014795,1459490400.0
OLIVER AGDM,53.650,-113.350,AB,7.5,7,NA,24.9,6,-7.8,2,,,NA,,,NA,,,,,NA,242.4,0.0,3014921,1459490400.0
RADWAY AGCM,53.995,-112.879,AB,6.8,0,NA,26.2,0,-7.3,0,,,NA,,,NA,,,,,NA,336.1,0.0,3015346,1459490400.0
RANFURLY AUTO,53.425,-111.726,AB,6.7,0,NA,25.4,0,-6.2,0,,,NA,24.8,0,NA,,5,,,NA,338.0,0.0,3015401,1459490400.0
RIBSTONE SOUTH AGCM,52.587,-110.343,AB,6.0,16,NA,27.1,10,-7.6,14,,,NA,15.5,18,NA,,4,,,NA,168.3,0.0,3015480,1459490400.0
RIVERCOURSE AGCM,53.019,-110.102,AB,5.9,2,NA,25.8,1,-7.8,1,,,NA,9.6,2,NA,,3,,,NA,339.2,0.0,3015501,1459490400.0
ROCKY MTN HOUSE (AUT),52.421,-114.912,AB,6.7,4,NA,23.4,4,-6.9,4,,,NA,7.1,4,NA,,2,,,NA,292.6,0.0,3015523,1459490400.0
ROSALIND AGCM,52.780,-112.428,AB,7.0,0,NA,26.5,0,-8.1,0,,,NA,13.2,1,NA,,5,,,NA,329.3,0.0,3015600,1459490400.0
ST. LINA AGCM,54.282,-111.453,AB,5.1,10,NA,24.7,3,-6.2,9,,,NA,11.8,10,NA,,3,,,NA,257.2,0.0,3015673,1459490400.0
ST. PAUL AGCM,54.011,-111.272,AB,7.1,28,NA,16.9,26,-1.1,25,,,NA,0.0,28,NA,,0,,,NA,21.8,0.0,3015676,1459490400.0
SEDALIA AGCM,51.590,-110.755,AB,7.8,3,NA,29.0,1,-8.0,2,,,NA,32.1,5,NA,,4,,,NA,274.7,0.0,3015797,1459490400.0
SEDGEWICK TOWN,52.783,-111.700,AB,7.0,0,2.5,27.0,0,-7.0,0,0.0,0,0.0,31.0,0,149.0,0.0,4,,,NA,331.0,0.0,3015808,1459490400.0
SHONTS AGCM,53.333,-112.539,AB,7.1,4,NA,25.6,3,-7.4,1,,,NA,13.8,4,NA,,5,,,NA,284.4,0.0,3015900,1459490400.0
SMOKY LAKE AGDM,54.278,-112.499,AB,6.2,0,NA,24.0,0,-6.4,0,,,NA,32.7,2,NA,,6,,,NA,355.4,0.0,3016022,1459490400.0
SPONDIN AGCM,51.816,-111.683,AB,6.0,8,NA,26.3,8,-8.3,1,,,NA,20.3,8,NA,,4,,,NA,263.7,0.0,3016070,1459490400.0
STETTLER AGDM,52.347,-112.596,AB,7.5,1,NA,27.0,0,-7.3,1,,,NA,11.3,2,NA,,3,,,NA,304.3,0.0,3016124,1459490400.0
THORSBY AGCM,53.217,-113.895,AB,7.6,5,NA,25.8,3,-5.3,2,,,NA,7.0,6,NA,,3,,,NA,259.5,0.0,3016441,1459490400.0
TOMAHAWK AGDM,53.439,-114.718,AB,8.4,4,NA,25.7,4,-5.3,1,,,NA,14.7,5,NA,,5,,,NA,250.7,0.0,3016505,1459490400.0
TULLIBY LAKE AGCM,53.664,-110.081,AB,6.1,10,NA,26.0,10,-7.5,4,,,NA,10.6,10,NA,,4,,,NA,238.3,0.0,3016593,1459490400.0
UNCAS,53.500,-113.033,AB,,,NA,,,,,4.0,0,NA,14.6,0,NA,0.0,4,,,NA,,,3016650,1459490400.0
TWO HILLS AGDM,53.625,-111.678,AB,6.5,2,NA,24.7,1,-5.7,1,,,NA,20.7,2,NA,,5,,,NA,323.0,0.0,3016655,1459490400.0
VERMILION AGDM,53.344,-110.882,AB,6.2,5,NA,25.7,2,-6.7,4,,,NA,17.7,6,NA,,5,,,NA,295.9,0.0,3016802,1459490400.0
VIKING AGCM,53.182,-111.732,AB,6.9,1,NA,25.9,1,-6.2,0,,,NA,21.4,1,NA,,7,,,NA,323.0,0.0,3016841,1459490400.0
VIKING NORTH 3,53.283,-111.767,AB,6.8,0,NA,27.0,0,-6.5,0,7.5,0,NA,22.0,0,NA,0.0,5,,,NA,336.3,0.0,3016845,1459490400.0
VILNA AGCM,54.130,-111.921,AB,5.5,1,NA,23.7,1,-6.5,0,,,NA,33.1,1,NA,,7,,,NA,362.0,0.0,3016852,1459490400.0
VIOLET GROVE CS,53.144,-115.126,AB,7.9,0,NA,25.9,0,-6.4,0,,,NA,5.4,0,NA,,2,,,NA,301.7,0.0,3016860,1459490400.0
VEGREVILLE,53.505,-112.098,AB,7.3,0,3.0,26.8,0,-6.6,0,,,NA,15.4,0,72.0,,5,,,NA,320.7,0.0,3016GF0,1459490400.0
WETASKIWIN AGCM,52.980,-113.444,AB,6.8,9,NA,22.6,7,-6.2,3,,,NA,6.4,10,NA,,2,,,NA,235.4,0.0,3017282,1459490400.0
EDMONTON STONY PLAIN CS,53.547,-114.108,AB,8.3,0,NA,25.3,0,-4.5,0,,,NA,4.8,0,NA,,2,,,NA,290.8,0.0,301A001,1459490400.0
ESTHER 1,51.670,-110.206,AB,6.8,4,NA,23.0,4,-8.7,1,,,NA,27.9,4,NA,,4,,,NA,292.3,0.0,301B460,1459490400.0
UNIVERSITY OF ALBERTA METABOLIC CENTRE,53.517,-113.533,AB,9.5,0,4.5,26.0,0,-4.0,0,1.0,0,11.0,9.4,0,35.0,0.0,2,,,NA,253.8,0.0,301FFNJ,1459490400.0
WAINWRIGHT CFB AIRFIELD 21,52.829,-111.096,AB,7.0,1,NA,26.8,0,-7.2,1,,,NA,31.7,1,NA,,4,,,NA,319.9,0.0,301S001,1459490400.0
ACADIA VALLEY,51.066,-110.317,AB,7.8,3,NA,25.4,2,-9.6,1,,,NA,29.0,4,NA,,3,,,NA,275.0,0.0,3020035,1459490400.0
ATLEE AGCM,50.810,-111.006,AB,7.4,6,NA,23.8,5,-7.7,1,,,NA,30.6,7,NA,,3,,,NA,253.6,0.0,3020405,1459490400.0
BEISEKER AGCM,51.379,-113.357,AB,7.6,0,NA,29.1,0,-9.2,0,,,NA,26.5,0,NA,,2,,,NA,313.0,0.0,3020610,1459490400.0
BIG VALLEY AGCM,51.998,-112.803,AB,7.8,3,NA,27.5,3,-7.1,1,,,NA,5.9,3,NA,,2,,,NA,274.6,0.0,3020679,1459490400.0
CRAIGMYLE AGCM,51.775,-112.252,AB,7.1,5,NA,27.5,2,-8.9,5,,,NA,11.6,6,NA,,3,,,NA,272.8,0.0,3021912,1459490400.0
CRAIGMYLE,51.767,-112.283,AB,8.3,6,3.4,28.0,6,-9.0,6,2.4,6,NA,6.2,6,NA,0.0,2,,,NA,233.3,0.0,3021940,1459490400.0
DRUMHELLER EAST,51.445,-112.677,AB,9.0,0,NA,29.3,0,-6.8,0,,,NA,1.8,12,NA,,1,,,NA,269.6,0.0,30221LG,1459490400.0
HESPERO AGCM,52.310,-114.486,AB,7.5,8,NA,25.3,7,-6.9,4,,,NA,4.5,11,NA,,2,,,NA,231.0,0.0,3023200,1459490400.0
HUSSAR AGDM,51.183,-112.500,AB,7.3,4,NA,26.3,3,-8.6,1,,,NA,7.2,4,NA,,2,,,NA,279.3,0.0,3023402,1459490400.0
LACOMBE CDA 2,52.449,-113.756,AB,7.6,0,NA,27.0,0,-7.7,0,,,NA,15.1,0,NA,,4,,,NA,312.6,0.0,3023722,1459490400.0
LEEDALE AGDM,52.553,-114.473,AB,7.2,10,NA,25.0,5,-5.1,10,,,NA,0.9,11,NA,,0,,,NA,215.4,0.0,3023740,1459490400.0
LINDEN AGCM,51.619,-113.656,AB,7.2,0,NA,28.1,0,-9.7,0,,,NA,13.9,21,NA,,2,,,NA,324.5,0.0,3023850,1459490400.0
MORRIN AGDM,51.660,-112.675,AB,7.6,0,NA,27.7,0,-9.0,0,,,NA,28.8,0,NA,,12,,,NA,311.2,0.0,3024668,1459490400.0
OLDS AGDM,51.759,-114.085,AB,7.3,0,NA,25.8,0,-7.5,0,,,NA,6.7,1,NA,,3,,,NA,321.0,0.0,3024925,1459490400.0
OYEN AGDM,51.383,-110.350,AB,7.9,7,NA,25.2,7,-7.2,2,,,NA,2.6,8,NA,,0,,,NA,232.3,0.0,3024965,1459490400.0
POLLOCKVILLE AGDM,51.125,-111.705,AB,7.9,5,NA,26.6,4,-5.8,2,,,NA,27.4,5,NA,,3,,,NA,251.4,0.0,3025243,1459490400.0
PRENTISS,52.433,-113.600,AB,7.7,4,NA,26.3,4,-6.6,1,,,NA,16.9,4,NA,,3,,,NA,267.0,0.0,3025297,1459490400.0
RED DEER REGIONAL A,52.182,-113.894,AB,7.6,0,NA,27.0,0,-6.1,0,4.4,0,NA,9.8,0,NA,,3,,,NA,311.3,0.0,3025481,1459490400.0
SCHULER AGDM,50.307,-110.091,AB,6.5,12,NA,21.4,8,-7.1,6,,,NA,20.8,13,NA,,3,,,NA,207.5,0.0,3025768,1459490400.0
SIBBALD WESTGARD,51.425,-110.146,AB,7.3,4,NA,27.0,4,-9.0,4,22.0,4,NA,33.2,4,NA,0.0,4,,,NA,278.4,0.0,3025928,1459490400.0
THREE HILLS,51.768,-113.206,AB,7.1,5,NA,28.1,4,-10.1,1,,,NA,17.4,6,NA,,2,,,NA,272.3,0.0,3026479,1459490400.0
SUNDRE A,51.778,-114.683,AB,6.8,0,NA,25.7,0,-7.2,0,,,NA,1.1,0,NA,,0,,,NA,336.9,0.0,3026KNQ,1459490400.0
WIMBORNE AGCM,51.936,-113.591,AB,7.1,4,NA,27.4,2,-7.7,2,,,NA,14.2,5,NA,,2,,,NA,283.0,0.0,3027582,1459490400.0
AZURE,50.512,-114.013,AB,7.9,6,NA,27.1,2,-7.6,4,,,NA,18.8,7,NA,,6,,,NA,243.3,0.0,3030450,1459490400.0
BARNWELL AGDM,49.800,-112.300,AB,8.5,6,NA,27.6,5,-8.3,1,,,NA,20.8,6,NA,,5,,,NA,227.2,0.0,3030525,1459490400.0
BARONS AGCM,50.026,-113.224,AB,8.4,4,NA,27.2,3,-7.7,1,,,NA,7.1,4,NA,,3,,,NA,249.4,0.0,3030529,1459490400.0
BASSANO AGCM,50.893,-112.465,AB,7.4,5,NA,27.8,3,-9.0,4,,,NA,5.5,6,NA,,1,,,NA,265.6,0.0,3030540,1459490400.0
BLACK DIAMOND,50.707,-114.152,AB,7.5,3,NA,27.5,2,-7.9,1,,,NA,,,NA,,,,,NA,282.4,0.0,3030680,1459490400.0
BLOOD TRIBE AGDM,49.567,-113.050,AB,8.0,7,NA,28.3,6,-5.2,1,,,NA,20.7,11,NA,,5,,,NA,229.7,0.0,3030720,1459490400.0
BOW ISLAND,49.734,-111.450,AB,9.4,0,NA,27.8,0,-4.5,0,,,NA,51.5,0,NA,,6,,,NA,257.6,0.0,3030768,1459490400.0
BOW ISLAND IRRIGATION AGDM,49.867,-111.383,AB,9.3,0,NA,26.4,0,-4.4,0,,,NA,46.5,1,NA,,5,,,NA,259.9,0.0,3030772,1459490400.0
BROCKET AGDM,49.617,-113.817,AB,8.3,1,NA,27.5,1,-5.1,0,,,NA,3.3,22,NA,,1,,,NA,280.7,0.0,3030830,1459490400.0
BROOKS,50.555,-111.849,AB,8.6,0,NA,27.1,0,-6.8,0,,,NA,23.5,0,NA,,3,,,NA,282.7,0.0,3030QLP,1459490400.0
CALGARY INTL A,51.123,-114.013,AB,8.8,0,NA,27.5,0,-4.1,0,0.0,1,NA,4.0,0,NA,,2,,,NA,276.0,0.0,3031092,1459490400.0
CALGARY INT'L CS,51.109,-114.000,AB,8.4,0,NA,26.9,0,-5.4,0,,,NA,2.8,0,NA,,1,,,NA,289.4,0.0,3031094,1459490400.0
CARDSTON,49.201,-113.286,AB,8.4,0,NA,27.0,0,-2.8,0,,,NA,21.2,0,NA,,5,,,NA,287.1,0.0,3031322,1459490400.0
CARWAY,49.001,-113.376,AB,7.3,0,NA,24.1,0,-3.7,0,,,NA,19.6,0,NA,,6,,,NA,320.4,0.0,3031402,1459490400.0
CHAMPION AGDM,50.282,-113.350,AB,8.0,0,NA,28.1,0,-6.1,0,,,NA,8.8,3,NA,,3,,,NA,300.1,0.0,3031480,1459490400.0
CLARESHOLM,50.004,-113.639,AB,8.3,0,NA,27.7,0,-6.9,0,,,NA,7.5,0,NA,,4,,,NA,289.7,0.0,3031640,1459490400.0
COP UPPER,51.076,-114.222,AB,9.0,0,NA,27.6,0,-5.1,0,,,NA,3.6,0,NA,,1,,,NA,271.5,0.3,3031875,1459490400.0
ENCHANT AGDM,50.183,-112.433,AB,8.9,4,NA,28.7,2,-6.1,2,,,NA,18.4,3,NA,,3,,,NA,236.6,0.0,3032422,1459490400.0
ETZIKOM AGCM,49.553,-111.054,AB,8.0,4,NA,23.4,4,-6.7,1,,,NA,46.8,6,NA,,7,,,NA,260.9,0.0,3032450,1459490400.0
FINCASTLE AGDM,49.800,-112.033,AB,9.4,0,NA,27.6,0,-5.7,0,,,NA,31.2,2,NA,,5,,,NA,258.7,0.0,3032550,1459490400.0
FOREMOST AGDM,49.483,-111.486,AB,8.1,3,NA,26.8,2,-5.2,1,,,NA,65.6,3,NA,,9,,,NA,267.1,0.0,3032642,1459490400.0
FORT MACLEOD AGCM,49.786,-113.379,AB,8.3,0,NA,28.0,0,-6.6,0,,,NA,17.1,0,NA,,4,,,NA,290.1,0.0,3032683,1459490400.0
GLEICHEN AGCM,50.934,-112.941,AB,8.1,0,NA,28.8,0,-8.5,0,,,NA,9.4,3,NA,,2,,,NA,296.9,0.0,3032801,1459490400.0
GRASSY LAKE,49.874,-111.733,AB,9.3,3,NA,27.8,3,-6.4,0,,,NA,38.1,4,NA,,6,,,NA,233.8,0.0,3032927,1459490400.0
IRON SPRINGS AGDM,49.900,-112.733,AB,8.9,4,NA,27.8,3,-6.7,2,,,NA,11.2,4,NA,,4,,,NA,237.1,0.0,3033498,1459490400.0
IRVINE AGCM,49.989,-110.261,AB,8.0,5,NA,24.0,3,-6.7,2,,,NA,35.7,6,NA,,5,,,NA,251.2,0.0,3033550,1459490400.0
LETHBRIDGE,49.630,-112.799,AB,8.0,4,NA,27.0,4,-5.6,4,,,NA,13.8,4,NA,,5,,,NA,260.2,0.0,3033875,1459490400.0
LETHBRIDGE CDA,49.695,-112.768,AB,,,NA,,,,,,,NA,14.6,13,NA,0.0,4,,,NA,,,3033890,1459490400.0
LETHBRIDGE DEMO FARM AGDM,49.683,-112.750,AB,8.6,2,NA,27.3,1,-4.9,1,,,NA,17.2,2,NA,,6,,,NA,264.3,0.0,3033897,1459490400.0
MEDICINE HAT,50.019,-110.721,AB,9.2,0,NA,25.4,0,-5.6,0,,,NA,32.0,0,NA,,4,,,NA,263.2,0.0,3034479,1459490400.0
MEDICINE HAT RCS,50.025,-110.717,AB,9.3,0,NA,25.3,0,-4.9,0,,,NA,37.4,0,NA,,5,,,NA,260.6,0.0,3034485,1459490400.0
MOSSLEIGH AGCM,50.673,-113.349,AB,7.8,6,NA,27.9,5,-8.9,1,,,NA,18.1,6,NA,,4,,,NA,245.2,0.0,3034577,1459490400.0
NIER AGDM,51.369,-114.099,AB,7.5,3,NA,26.0,1,-9.6,2,,,NA,1.3,3,NA,,1,,,NA,283.9,0.0,3034795,1459490400.0
PINCHER CREEK,49.521,-113.997,AB,8.1,2,NA,26.5,2,-4.4,2,,,NA,12.6,2,NA,,3,,,NA,277.7,0.0,3035198,1459490400.0
PINCHER CREEK CLIMATE,49.522,-114.005,AB,7.9,0,NA,26.1,0,-4.7,0,,,NA,12.6,0,NA,,3,,,NA,301.6,0.0,3035208,1459490400.0
QUEENSTOWN,50.606,-112.983,AB,7.7,0,2.4,27.0,0,-7.5,0,0.0,0,0.0,12.2,0,39.0,0.0,5,,,NA,308.0,0.0,3035340,1459490400.0
QUEENSTOWN,50.598,-112.803,AB,8.3,2,NA,27.4,1,-8.9,1,,,NA,12.3,2,NA,,3,,,NA,272.1,0.0,3035342,1459490400.0
RAYMOND AGDM,49.483,-112.683,AB,9.1,3,NA,26.9,3,-4.4,0,,,NA,30.2,8,NA,,6,,,NA,239.2,0.0,3035422,1459490400.0
ROLLING HILLS AGCM,50.265,-111.701,AB,8.5,7,NA,27.4,7,-8.6,2,,,NA,3.8,7,NA,,1,,,NA,219.3,0.0,3035530,1459490400.0
ROSEMARY AGDM,50.833,-112.050,AB,7.6,4,NA,27.2,4,-9.0,0,,,NA,22.2,17,NA,,3,,,NA,270.9,0.0,3035650,1459490400.0
SEVEN PERSONS AGDM,49.917,-110.917,AB,8.6,0,NA,24.0,0,-6.2,0,,,NA,60.4,1,NA,,5,,,NA,282.5,0.0,3035845,1459490400.0
STANDARD AGCM,51.228,-112.982,AB,8.6,1,NA,28.6,1,-7.1,0,,,NA,9.7,1,NA,,3,,,NA,273.9,0.0,3036086,1459490400.0
STAVELY AAFC,50.183,-113.883,AB,8.2,0,NA,25.1,0,-4.4,0,,,NA,21.6,0,NA,,7,,,NA,294.3,0.0,3036099,1459490400.0
STRATHMORE AGDM,51.033,-113.283,AB,8.1,0,NA,27.1,0,-6.2,0,,,NA,18.8,2,NA,,2,,,NA,297.4,0.0,3036205,1459490400.0
TABER,49.792,-112.124,AB,9.6,17,NA,27.5,11,-3.0,11,0.0,11,NA,33.0,11,NA,,4,,,NA,109.1,0.0,3036360,1459490400.0
TRAVERS AGCM,50.304,-112.863,AB,8.7,5,NA,27.8,4,-7.6,3,,,NA,12.0,5,NA,,4,,,NA,231.8,0.0,3036500,1459490400.0
VAUXHALL CDA CS,50.050,-112.133,AB,9.1,0,NA,28.4,0,-5.9,0,,,NA,30.3,0,NA,,5,,,NA,268.0,0.0,3036682,1459490400.0
WILDCAT HILLS,51.269,-114.721,AB,6.5,0,NA,27.0,0,-8.0,0,0.0,0,NA,15.8,0,NA,0.0,4,,,NA,345.1,0.0,3037550,1459490400.0
WRENTHAM AGDM,49.500,-112.117,AB,9.0,8,NA,26.9,8,-6.6,1,,,NA,20.5,10,NA,,3,,,NA,197.3,0.0,3037675,1459490400.0
OKOTOKS,50.729,-113.961,AB,8.7,0,3.7,29.5,0,-6.0,0,6.2,0,28.0,23.4,0,62.0,0.0,2,,,NA,279.4,0.0,303M9JM,1459490400.0
PICTURE BUTTE WEST,49.871,-112.788,AB,8.8,4,NA,29.0,2,-5.5,2,0.0,2,NA,13.8,2,NA,0.0,4,,,NA,238.4,0.0,303N1G3,1459490400.0
DEL BONITA AGDM,49.050,-112.817,AB,6.8,0,NA,24.0,0,-5.3,0,,,NA,19.6,1,NA,,6,,,NA,335.2,0.0,3042045,1459490400.0
MANYBERRIES AGCM,49.364,-110.678,AB,7.7,3,NA,23.2,1,-5.9,3,,,NA,46.4,5,NA,,8,,,NA,277.1,0.0,3044203,1459490400.0
MASINASIN AGDM,49.137,-111.652,AB,8.6,3,NA,26.2,3,-3.7,0,,,NA,76.4,5,NA,,8,,,NA,253.3,0.0,3044232,1459490400.0
MILK RIVER,49.133,-112.050,AB,7.7,0,NA,26.2,0,-5.8,0,,,NA,63.2,0,NA,,7,,,NA,308.7,0.0,3044533,1459490400.0
ONEFOUR CDA,49.117,-110.467,AB,7.8,0,NA,22.4,0,-7.0,0,,,NA,59.5,0,NA,,6,,,NA,306.1,0.0,3044923,1459490400.0
PAKOWKI LAKE AGCM,49.225,-111.126,AB,7.8,4,NA,24.9,3,-4.9,2,,,NA,94.4,4,NA,,9,,,NA,264.0,0.0,3045000,1459490400.0
BANFF CS,51.193,-115.552,AB,7.0,0,NA,22.8,0,-5.5,0,,,NA,16.0,0,NA,,4,,,NA,331.3,0.0,3050519,1459490400.0
BEAVER MINES,49.468,-114.175,AB,7.7,0,NA,25.1,0,-4.8,0,,,NA,22.6,0,NA,,6,,,NA,308.6,0.0,3050602,1459490400.0
BOW VALLEY,51.083,-115.067,AB,7.1,2,NA,24.3,2,-8.1,0,,,NA,16.3,4,NA,,3,,,NA,304.9,0.0,3050778,1459490400.0
CROWSNEST,49.628,-114.482,AB,6.8,0,NA,25.3,0,-5.7,0,,,NA,6.8,21,NA,,3,,,NA,335.5,0.0,3051R4R,1459490400.0
JASPER WARDEN,52.926,-118.030,AB,7.8,0,NA,26.3,0,-7.6,0,,,NA,5.5,1,NA,,3,,,NA,307.1,0.0,3053536,1459490400.0
KANANASKIS,51.028,-115.035,AB,6.8,3,3.6,24.5,3,-5.5,3,0.0,3,NA,20.8,3,NA,0.0,5,,,NA,302.7,0.0,3053600,1459490400.0
KANANASKIS POCATERRA,50.713,-115.120,AB,9.0,29,7.9,21.0,24,-4.0,24,0.0,24,NA,0.4,24,NA,,0,,,NA,9.0,0.0,3053604,1459490400.0
NORDEGG CS,52.492,-116.040,AB,6.3,0,NA,24.8,0,-6.5,0,,,NA,27.4,0,NA,,5,,,NA,350.4,0.0,3054843,1459490400.0
PEKISKO,50.368,-114.416,AB,6.5,1,NA,26.7,1,-6.0,0,,,NA,34.2,1,NA,,6,,,NA,332.5,0.0,3055119,1459490400.0
WATERTON PARK GATE,49.131,-113.809,AB,7.7,0,NA,23.8,0,-4.8,0,,,NA,27.3,0,NA,,5,,,NA,308.1,0.0,3056214,1459490400.0
NAKISKA RIDGETOP,50.943,-115.190,AB,1.3,6,NA,13.6,6,-6.7,5,,,NA,,,NA,,,,,NA,400.6,0.0,305MGFF,1459490400.0
ATHABASCA AGCM,54.635,-113.382,AB,6.9,0,NA,25.4,0,-6.9,0,,,NA,19.0,1,NA,,5,,,NA,334.3,0.0,3060330,1459490400.0
ATMORE AGDM,54.782,-112.825,AB,5.3,0,NA,24.8,0,-9.2,0,,,NA,27.4,2,NA,,5,,,NA,380.3,0.0,3060406,1459490400.0
BARRHEAD CS,54.095,-114.448,AB,7.7,0,NA,27.3,0,-6.6,0,,,NA,3.9,0,NA,,1,,,NA,307.9,0.0,3060535,1459490400.0
BRULE BLACK CAT,53.350,-117.867,AB,6.7,26,3.3,16.5,24,-2.5,24,0.0,24,NA,15.0,24,NA,0.0,5,,,NA,45.4,0.0,3060903,1459490400.0
CAMPSIE AUTO,54.131,-114.678,AB,7.0,0,NA,26.7,0,-6.9,0,,,NA,4.0,0,NA,,3,,,NA,328.8,0.0,3061201,1459490400.0
DAPP AGDM,54.317,-113.950,AB,7.0,5,NA,26.3,3,-7.4,2,,,NA,8.2,6,NA,,2,,,NA,275.5,0.0,3061975,1459490400.0
EDSON,53.579,-116.465,AB,6.7,4,NA,22.5,4,-5.7,4,,,NA,12.0,4,NA,,3,,,NA,293.3,0.0,3062239,1459490400.0
EDSON CLIMATE,53.580,-116.453,AB,7.4,0,NA,27.7,0,-5.0,0,,,NA,10.3,0,NA,,3,,,NA,318.3,0.0,3062246,1459490400.0
ENTWISTLE,53.600,-114.983,AB,8.6,0,3.6,27.0,0,-5.0,0,0.0,0,0.0,3.6,0,12.0,0.0,2,,,NA,281.8,0.0,3062451,1459490400.0
EVANSBURG2 AGCM,53.614,-115.062,AB,6.8,0,NA,26.4,0,-7.2,0,,,NA,3.7,1,NA,,1,,,NA,336.6,0.0,3062476,1459490400.0
FORT ASSINIBOINE AGCM,54.410,-114.769,AB,7.5,5,NA,26.7,3,-6.3,3,,,NA,5.4,6,NA,,2,,,NA,262.3,0.0,3062660,1459490400.0
FORT MCMURRAY CS,56.651,-111.213,AB,4.2,0,NA,27.7,0,-10.1,0,,,NA,21.2,0,NA,,4,,,NA,413.5,0.0,3062696,1459490400.0
FORT MCMURRAY A,56.653,-111.223,AB,4.2,0,NA,27.2,0,-9.8,0,,,NA,17.5,0,NA,,5,,,NA,415.2,0.0,3062697,1459490400.0
HENDRICKSON CREEK,53.795,-118.447,AB,4.0,1,NA,23.3,1,-10.2,0,,,NA,13.9,2,NA,,5,,,NA,405.6,0.0,3063135,1459490400.0
HIGH PRAIRIE AGDM,55.396,-116.479,AB,7.0,0,NA,29.3,0,-5.5,0,,,NA,8.3,0,NA,,2,,,NA,331.4,0.0,3063165,1459490400.0
ISLAND LAKE SOUTH,54.821,-113.543,AB,6.3,0,NA,26.2,0,-7.6,0,,,NA,18.5,0,NA,,6,,,NA,351.9,0.0,3063600,1459490400.0
LAC LA BICHE CLIMATE,54.769,-112.024,AB,6.0,0,NA,25.4,0,-7.1,0,,,NA,35.6,0,NA,,5,,,NA,359.6,0.0,3063686,1459490400.0
